<?xml version="1.0" standalone="yes"?>
<gpx xmlns="http://www.topografix.com/GPX/1/1" creator="KML2GPX.COM" version="1.1" xmlns:xsi="http://www.w3.org/2001/XMLSchema-instance" xsi:schemaLocation="http://www.topografix.com/GPX/1/1 http://www.topografix.com/GPX/1/1/gpx.xsd">
    <metadata>
        <name><![CDATA[BlauwNet]]></name>
        <desc><![CDATA[]]></desc>
                </metadata>

                                                                                
                <wpt lat="52.50998" lon="6.41739200000006">
                                                            <ele>0</ele>
                    <name><![CDATA[Ommen, Station]]></name>
                    <cmt><![CDATA[Waypoint no: 1]]></cmt>
                    <desc>blauwnet</desc>
                </wpt>
                                                                                                                            
                <wpt lat="52.509164" lon="6.57369399999993">
                                                            <ele>0</ele>
                    <name><![CDATA[Marienberg, Station]]></name>
                    <cmt><![CDATA[Waypoint no: 2]]></cmt>
                    <desc>blauwnet</desc>
                </wpt>
                                                                                                                            
                <wpt lat="52.572396" lon="6.62750299999993">
                                                            <ele>0</ele>
                    <name><![CDATA[Hardenberg, Station]]></name>
                    <cmt><![CDATA[Waypoint no: 3]]></cmt>
                    <desc>blauwnet</desc>
                </wpt>
                                                                                                                            
                <wpt lat="52.3573833" lon="6.65492130000007">
                                                            <ele>0</ele>
                    <name><![CDATA[Almelo Railway Station]]></name>
                    <cmt><![CDATA[Waypoint no: 4]]></cmt>
                    <desc>blauwnet</desc>
                </wpt>
                                                                                                                            
                <wpt lat="52.4573594" lon="6.56962569999996">
                                                            <ele>0</ele>
                    <name><![CDATA[Vroomshoop]]></name>
                    <cmt><![CDATA[Waypoint no: 5]]></cmt>
                    <desc>blauwnet</desc>
                </wpt>
                                                                                                                            
                <wpt lat="52.441722" lon="6.57588499999997">
                                                            <ele>0</ele>
                    <name><![CDATA[Daarlerveen, Station]]></name>
                    <cmt><![CDATA[Waypoint no: 6]]></cmt>
                    <desc>blauwnet</desc>
                </wpt>
                                                                                                                            
                <wpt lat="52.342239" lon="6.66663449999999">
                                                            <ele>0</ele>
                    <name><![CDATA[Almelo de Riet]]></name>
                    <cmt><![CDATA[Waypoint no: 7]]></cmt>
                    <desc>blauwnet</desc>
                </wpt>
                                                                                                                            
                <wpt lat="52.2995311" lon="6.748423">
                                                            <ele>0</ele>
                    <name><![CDATA[Borne railway station]]></name>
                    <cmt><![CDATA[Waypoint no: 8]]></cmt>
                    <desc>blauwnet</desc>
                </wpt>
                                                                                                                            
                <wpt lat="52.30658" lon="6.93494399999997">
                                                            <ele>0</ele>
                    <name><![CDATA[Oldenzaal, Station]]></name>
                    <cmt><![CDATA[Waypoint no: 9]]></cmt>
                    <desc>blauwnet</desc>
                </wpt>
                                                                                                                            
                <wpt lat="52.218572" lon="6.973882">
                                                            <ele>0</ele>
                    <name><![CDATA[Glanerbrug]]></name>
                    <cmt><![CDATA[Waypoint no: 10]]></cmt>
                    <desc>blauwnet</desc>
                </wpt>
                                                                                                                            
                <wpt lat="52.7488209" lon="6.87420129999998">
                                                            <ele>0</ele>
                    <name><![CDATA[Emmen Zuid]]></name>
                    <cmt><![CDATA[Waypoint no: 11]]></cmt>
                    <desc>blauwnet</desc>
                </wpt>
                                                                                                                            
                <wpt lat="52.221971" lon="6.88929200000007">
                                                            <ele>0</ele>
                    <name><![CDATA[Enschede, Centraal Station]]></name>
                    <cmt><![CDATA[Waypoint no: 12]]></cmt>
                    <desc>blauwnet</desc>
                </wpt>
                                                                                                                            
                <wpt lat="52.144164" lon="6.19346999999993">
                                                            <ele>0</ele>
                    <name><![CDATA[Zutphen, Station]]></name>
                    <cmt><![CDATA[Waypoint no: 13]]></cmt>
                    <desc>blauwnet</desc>
                </wpt>
                                                                                                                            
                <wpt lat="52.262308" lon="6.79391899999996">
                                                            <ele>0</ele>
                    <name><![CDATA[Hengelo, Central Station]]></name>
                    <cmt><![CDATA[Waypoint no: 14]]></cmt>
                    <desc>blauwnet</desc>
                </wpt>
                                                                                                                            
                <wpt lat="52.5599651" lon="5.92201350000005">
                                                            <ele>0</ele>
                    <name><![CDATA[Kampen, Station]]></name>
                    <cmt><![CDATA[Waypoint no: 15]]></cmt>
                    <desc>blauwnet</desc>
                </wpt>
                                                                                                                            
                <wpt lat="52.5054536" lon="6.09095969999998">
                                                            <ele>0</ele>
                    <name><![CDATA[Zwolle Station]]></name>
                
                    <desc>blauwnet</desc>
                </wpt>
                                                            
                    
    
</gpx>