<?xml version="1.0" encoding="UTF-8" standalone="yes"?>
<gpx version="1.1" creator="https://www.longdistancepaths.eu" xmlns="http://www.topografix.com/GPX/1/1" xmlns:xsi="http://www.w3.org/2001/XMLSchema-instance" xsi:schemaLocation="http://www.topografix.com/GPX/1/1 http://www.topografix.com/GPX/1/1/gpx.xsd">
<wpt lat="53.400723" lon="6.453867">
   <ele>0</ele>
   <name>Pieterburen (Village)</name>
   <cmt>Warning check the accessibility of the waypoint from the Pieterpad before departure</cmt>
   <desc>Warning check the accessibility of the waypoint from the Pieterpad before departure</desc>
   <sym>City Hall</sym>
</wpt>

<wpt lat="53.3998314" lon="6.4534862">
   <ele>0</ele>
   <name>Hotel Waddenweelde (Hotel)</name>
   <cmt>+31 595 528 558 Warning check the accessibility of the waypoint from the Pieterpad before departure</cmt>
   <desc>Warning check the accessibility of the waypoint from the Pieterpad before departure</desc>
   <sym>Lodge</sym>
</wpt>

<wpt lat="53.3992837" lon="6.4554722">
   <ele>0.9</ele>
   <name>Waddenhoes (Guest house)</name>
   <cmt>Warning check the accessibility of the waypoint from the Pieterpad before departure</cmt>
   <desc>Warning check the accessibility of the waypoint from the Pieterpad before departure</desc>
   <sym>Lodge</sym>
</wpt>

<wpt lat="53.4000067" lon="6.4533826">
   <ele>0.6</ele>
   <name>Pieterplein (Bus stop)</name>
   <cmt>Warning check the accessibility of the waypoint from the Pieterpad before departure</cmt>
   <desc>Warning check the accessibility of the waypoint from the Pieterpad before departure</desc>
   <sym>Ground Transportation</sym>
</wpt>

<wpt lat="53.4000802" lon="6.4548154">
   <ele>1</ele>
   <name>Dorpslogement Pieterburen, Bed and Breakfast (Guest house)</name>
   <cmt>Warning check the accessibility of the waypoint from the Pieterpad before departure</cmt>
   <desc>Warning check the accessibility of the waypoint from the Pieterpad before departure</desc>
   <sym>Lodge</sym>
</wpt>

<wpt lat="53.400874" lon="6.4544743">
   <ele>1</ele>
   <name>Noordkus (Guest house)</name>
   <cmt>Warning check the accessibility of the waypoint from the Pieterpad before departure</cmt>
   <desc>Warning check the accessibility of the waypoint from the Pieterpad before departure</desc>
   <sym>Lodge</sym>
</wpt>

<wpt lat="53.3987239" lon="6.4516505">
   <ele>2.2</ele>
   <name>Camping Boet&#039;n Toen (Camp site)</name>
   <cmt>06-57022690 Warning check the accessibility of the waypoint from the Pieterpad before departure</cmt>
   <desc>Warning check the accessibility of the waypoint from the Pieterpad before departure</desc>
   <sym>Lodge</sym>
</wpt>

<wpt lat="53.3691408" lon="6.4620556">
   <ele>-0.4</ele>
   <name>Bed &amp; Breakfast GOIDAG (Guest house)</name>
   <cmt>Warning check the accessibility of the waypoint from the Pieterpad before departure</cmt>
   <desc>Warning check the accessibility of the waypoint from the Pieterpad before departure</desc>
   <sym>Lodge</sym>
</wpt>

<wpt lat="53.3648108" lon="6.4971763">
   <ele>0.3</ele>
   <name>De Maar (Camp site)</name>
   <cmt>Warning check the accessibility of the waypoint from the Pieterpad before departure</cmt>
   <desc>Warning check the accessibility of the waypoint from the Pieterpad before departure</desc>
   <sym>Lodge</sym>
</wpt>

<wpt lat="53.364567" lon="6.462002">
   <ele>0</ele>
   <name>Eenrum (Village)</name>
   <cmt>Warning check the accessibility of the waypoint from the Pieterpad before departure</cmt>
   <desc>Warning check the accessibility of the waypoint from the Pieterpad before departure</desc>
   <sym>City Hall</sym>
</wpt>

<wpt lat="53.3653798" lon="6.4585815">
   <ele>2.6</ele>
   <name>Grand Hotel De Kromme Raake (Hotel)</name>
   <cmt>0595-491600 Warning check the accessibility of the waypoint from the Pieterpad before departure</cmt>
   <desc>Warning check the accessibility of the waypoint from the Pieterpad before departure</desc>
   <sym>Lodge</sym>
</wpt>

<wpt lat="53.36354745" lon="6.45777325">
   <ele>2</ele>
   <name>Raadhuisstraat (Bus stop)</name>
   <cmt>Warning check the accessibility of the waypoint from the Pieterpad before departure</cmt>
   <desc>Warning check the accessibility of the waypoint from the Pieterpad before departure</desc>
   <sym>Ground Transportation</sym>
</wpt>

<wpt lat="53.364347" lon="6.4594442">
   <ele>2.6</ele>
   <name>B&amp;B de Lastpost (Guest house)</name>
   <cmt>Warning check the accessibility of the waypoint from the Pieterpad before departure</cmt>
   <desc>Warning check the accessibility of the waypoint from the Pieterpad before departure</desc>
   <sym>Lodge</sym>
</wpt>

<wpt lat="53.3632073" lon="6.46089835">
   <ele>3.2</ele>
   <name>Kerkhofslaan (Bus stop)</name>
   <cmt>Warning check the accessibility of the waypoint from the Pieterpad before departure</cmt>
   <desc>Warning check the accessibility of the waypoint from the Pieterpad before departure</desc>
   <sym>Ground Transportation</sym>
</wpt>

<wpt lat="53.35942035" lon="6.4630283">
   <ele>1.9</ele>
   <name>De Vennen (Bus stop)</name>
   <cmt>Warning check the accessibility of the waypoint from the Pieterpad before departure</cmt>
   <desc>Warning check the accessibility of the waypoint from the Pieterpad before departure</desc>
   <sym>Ground Transportation</sym>
</wpt>

<wpt lat="53.3572141" lon="6.4646003">
   <ele>1</ele>
   <name>Mensingeweersterweg (Bus stop)</name>
   <cmt>Warning check the accessibility of the waypoint from the Pieterpad before departure</cmt>
   <desc>Warning check the accessibility of the waypoint from the Pieterpad before departure</desc>
   <sym>Ground Transportation</sym>
</wpt>

<wpt lat="53.35380375" lon="6.4660156">
   <ele>-0.5</ele>
   <name>Eenrummerweg (Bus stop)</name>
   <cmt>Warning check the accessibility of the waypoint from the Pieterpad before departure</cmt>
   <desc>Warning check the accessibility of the waypoint from the Pieterpad before departure</desc>
   <sym>Ground Transportation</sym>
</wpt>

<wpt lat="53.351643" lon="6.464816">
   <ele>0</ele>
   <name>Mensingeweer (Village)</name>
   <cmt>Warning check the accessibility of the waypoint from the Pieterpad before departure</cmt>
   <desc>Warning check the accessibility of the waypoint from the Pieterpad before departure</desc>
   <sym>City Hall</sym>
</wpt>

<wpt lat="53.3384113" lon="6.4520709">
   <ele>1.2</ele>
   <name>B&amp;B Groot Maarslag (Guest house)</name>
   <cmt>+31(0)595 491 899 Warning check the accessibility of the waypoint from the Pieterpad before departure</cmt>
   <desc>Warning check the accessibility of the waypoint from the Pieterpad before departure</desc>
   <sym>Lodge</sym>
</wpt>

<wpt lat="53.3330317" lon="6.490277">
   <ele>2</ele>
   <name>Bed &amp; Breakfast Batenborg (Guest house)</name>
   <cmt>Warning check the accessibility of the waypoint from the Pieterpad before departure</cmt>
   <desc>Warning check the accessibility of the waypoint from the Pieterpad before departure</desc>
   <sym>Lodge</sym>
</wpt>

<wpt lat="53.3320267" lon="6.5088618">
   <ele>-0.1</ele>
   <name>Marenland Recreatie (Camp site)</name>
   <cmt>Warning check the accessibility of the waypoint from the Pieterpad before departure</cmt>
   <desc>Warning check the accessibility of the waypoint from the Pieterpad before departure</desc>
   <sym>Lodge</sym>
</wpt>

<wpt lat="53.33385775" lon="6.51129855">
   <ele>1.2</ele>
   <name>Rotonde N361 (Bus stop)</name>
   <cmt>Warning check the accessibility of the waypoint from the Pieterpad before departure</cmt>
   <desc>Warning check the accessibility of the waypoint from the Pieterpad before departure</desc>
   <sym>Ground Transportation</sym>
</wpt>

<wpt lat="53.3319743" lon="6.5170451">
   <ele>1.7</ele>
   <name>B&amp;B Oosterstraat 48 (Guest house)</name>
   <cmt>Warning check the accessibility of the waypoint from the Pieterpad before departure</cmt>
   <desc>Warning check the accessibility of the waypoint from the Pieterpad before departure</desc>
   <sym>Lodge</sym>
</wpt>

<wpt lat="53.330811" lon="6.522254">
   <ele>0</ele>
   <name>Winsum (Town)</name>
   <cmt>Warning check the accessibility of the waypoint from the Pieterpad before departure</cmt>
   <desc>Warning check the accessibility of the waypoint from the Pieterpad before departure</desc>
   <sym>City Hall</sym>
</wpt>

<wpt lat="53.332024" lon="6.516536">
   <ele>2.5</ele>
   <name>B&amp;B Aan het diep Winsum (Guest house)</name>
   <cmt>Warning check the accessibility of the waypoint from the Pieterpad before departure</cmt>
   <desc>Warning check the accessibility of the waypoint from the Pieterpad before departure</desc>
   <sym>Lodge</sym>
</wpt>

<wpt lat="53.3318903" lon="6.5164274">
   <ele>3.1</ele>
   <name>B&amp;B te Winsum (Guest house)</name>
   <cmt>Warning check the accessibility of the waypoint from the Pieterpad before departure</cmt>
   <desc>Warning check the accessibility of the waypoint from the Pieterpad before departure</desc>
   <sym>Lodge</sym>
</wpt>

<wpt lat="53.329967" lon="6.520316">
   <ele>0</ele>
   <name>Station Winsum (Station)</name>
   <cmt>Warning check the accessibility of the waypoint from the Pieterpad before departure</cmt>
   <desc>Warning check the accessibility of the waypoint from the Pieterpad before departure</desc>
   <sym>Ground Transportation</sym>
</wpt>

<wpt lat="53.3293079" lon="6.5177407">
   <ele>1.1</ele>
   <name>B&amp;B Van het padje (Guest house)</name>
   <cmt>Warning check the accessibility of the waypoint from the Pieterpad before departure</cmt>
   <desc>Warning check the accessibility of the waypoint from the Pieterpad before departure</desc>
   <sym>Lodge</sym>
</wpt>

<wpt lat="53.3318925" lon="6.510438">
   <ele>-0.8</ele>
   <name>Bedstee hotel Marenland (Hotel)</name>
   <cmt>Warning check the accessibility of the waypoint from the Pieterpad before departure</cmt>
   <desc>Warning check the accessibility of the waypoint from the Pieterpad before departure</desc>
   <sym>Lodge</sym>
</wpt>

<wpt lat="53.3311084" lon="6.5120949">
   <ele>1.5</ele>
   <name>B&amp;B   De Waard van het Hogeland (Guest house)</name>
   <cmt>Warning check the accessibility of the waypoint from the Pieterpad before departure</cmt>
   <desc>Warning check the accessibility of the waypoint from the Pieterpad before departure</desc>
   <sym>Lodge</sym>
</wpt>

<wpt lat="53.32914755" lon="6.51259855">
   <ele>-0.4</ele>
   <name>Priorstraat (Bus stop)</name>
   <cmt>Warning check the accessibility of the waypoint from the Pieterpad before departure</cmt>
   <desc>Warning check the accessibility of the waypoint from the Pieterpad before departure</desc>
   <sym>Ground Transportation</sym>
</wpt>

<wpt lat="53.3248367" lon="6.5185311">
   <ele>1.5</ele>
   <name>Borgweg (Bus stop)</name>
   <cmt>Warning check the accessibility of the waypoint from the Pieterpad before departure</cmt>
   <desc>Warning check the accessibility of the waypoint from the Pieterpad before departure</desc>
   <sym>Ground Transportation</sym>
</wpt>

<wpt lat="53.306407" lon="6.4921461">
   <ele>1.5</ele>
   <name>De Blokhut (Guest house)</name>
   <cmt>Warning check the accessibility of the waypoint from the Pieterpad before departure</cmt>
   <desc>Warning check the accessibility of the waypoint from the Pieterpad before departure</desc>
   <sym>Lodge</sym>
</wpt>

<wpt lat="53.3050955" lon="6.4939885">
   <ele>1.3</ele>
   <name>B&amp;B Brugwachtershuis Hammingh (Guest house)</name>
   <cmt>Warning check the accessibility of the waypoint from the Pieterpad before departure</cmt>
   <desc>Warning check the accessibility of the waypoint from the Pieterpad before departure</desc>
   <sym>Lodge</sym>
</wpt>

<wpt lat="53.30458615" lon="6.49169435">
   <ele>2.9</ele>
   <name>Krassumerstraat (Bus stop)</name>
   <cmt>Warning check the accessibility of the waypoint from the Pieterpad before departure</cmt>
   <desc>Warning check the accessibility of the waypoint from the Pieterpad before departure</desc>
   <sym>Ground Transportation</sym>
</wpt>

<wpt lat="53.3050211" lon="6.4904154">
   <ele>6.2</ele>
   <name>De Oude Pastorie (Guest house)</name>
   <cmt>Warning check the accessibility of the waypoint from the Pieterpad before departure</cmt>
   <desc>Warning check the accessibility of the waypoint from the Pieterpad before departure</desc>
   <sym>Lodge</sym>
</wpt>

<wpt lat="53.304127" lon="6.492743">
   <ele>0</ele>
   <name>Garnwerd (Village)</name>
   <cmt>Warning check the accessibility of the waypoint from the Pieterpad before departure</cmt>
   <desc>Warning check the accessibility of the waypoint from the Pieterpad before departure</desc>
   <sym>City Hall</sym>
</wpt>

<wpt lat="53.3043392" lon="6.494257">
   <ele>-0.2</ele>
   <name>&#039;t Woaterbörgje (Guest house)</name>
   <cmt>+31 594 621559 Warning check the accessibility of the waypoint from the Pieterpad before departure</cmt>
   <desc>Warning check the accessibility of the waypoint from the Pieterpad before departure</desc>
   <sym>Lodge</sym>
</wpt>

<wpt lat="53.3041581" lon="6.4943537">
   <ele>0</ele>
   <name>B&amp;B Regina (Guest house)</name>
   <cmt>Warning check the accessibility of the waypoint from the Pieterpad before departure</cmt>
   <desc>Warning check the accessibility of the waypoint from the Pieterpad before departure</desc>
   <sym>Lodge</sym>
</wpt>

<wpt lat="53.3036356" lon="6.4945053">
   <ele>0</ele>
   <name>B&amp;B De Tuinkamer (Guest house)</name>
   <cmt>Warning check the accessibility of the waypoint from the Pieterpad before departure</cmt>
   <desc>Warning check the accessibility of the waypoint from the Pieterpad before departure</desc>
   <sym>Lodge</sym>
</wpt>

<wpt lat="53.271982" lon="6.5046961">
   <ele>-1</ele>
   <name>B&amp;B Wierumerstee (Guest house)</name>
   <cmt>Warning check the accessibility of the waypoint from the Pieterpad before departure</cmt>
   <desc>Warning check the accessibility of the waypoint from the Pieterpad before departure</desc>
   <sym>Lodge</sym>
</wpt>

<wpt lat="53.2702997" lon="6.5058667">
   <ele>-0.8</ele>
   <name>The Horse Farm Bed and Breakfast (Guest house)</name>
   <cmt>Warning check the accessibility of the waypoint from the Pieterpad before departure</cmt>
   <desc>Warning check the accessibility of the waypoint from the Pieterpad before departure</desc>
   <sym>Lodge</sym>
</wpt>

<wpt lat="53.2509568" lon="6.5707525">
   <ele>-3</ele>
   <name>Bed &amp; Breakfast Woldstee (Guest house)</name>
   <cmt>+31 50 5797330 Warning check the accessibility of the waypoint from the Pieterpad before departure</cmt>
   <desc>Warning check the accessibility of the waypoint from the Pieterpad before departure</desc>
   <sym>Lodge</sym>
</wpt>

<wpt lat="53.23716545" lon="6.53788965">
   <ele>2.7</ele>
   <name>Crematoriumlaan (Bus stop)</name>
   <cmt>Warning check the accessibility of the waypoint from the Pieterpad before departure</cmt>
   <desc>Warning check the accessibility of the waypoint from the Pieterpad before departure</desc>
   <sym>Ground Transportation</sym>
</wpt>

<wpt lat="53.23402685" lon="6.53957955">
   <ele>-0.4</ele>
   <name>Kometenstraat (Bus stop)</name>
   <cmt>Warning check the accessibility of the waypoint from the Pieterpad before departure</cmt>
   <desc>Warning check the accessibility of the waypoint from the Pieterpad before departure</desc>
   <sym>Ground Transportation</sym>
</wpt>

<wpt lat="53.23517175" lon="6.5478519">
   <ele>1.4</ele>
   <name>Vogelkerslaan (Bus stop)</name>
   <cmt>Warning check the accessibility of the waypoint from the Pieterpad before departure</cmt>
   <desc>Warning check the accessibility of the waypoint from the Pieterpad before departure</desc>
   <sym>Ground Transportation</sym>
</wpt>

<wpt lat="53.23218195" lon="6.5495931">
   <ele>-1.5</ele>
   <name>Elzenlaan (Bus stop)</name>
   <cmt>Warning check the accessibility of the waypoint from the Pieterpad before departure</cmt>
   <desc>Warning check the accessibility of the waypoint from the Pieterpad before departure</desc>
   <sym>Ground Transportation</sym>
</wpt>

<wpt lat="53.2333806" lon="6.5645701">
   <ele>2</ele>
   <name>Stee in Stad (Hotel)</name>
   <cmt>Warning check the accessibility of the waypoint from the Pieterpad before departure</cmt>
   <desc>Warning check the accessibility of the waypoint from the Pieterpad before departure</desc>
   <sym>Lodge</sym>
</wpt>

<wpt lat="53.230148" lon="6.556317">
   <ele>0</ele>
   <name>Station Groningen Noord (Station)</name>
   <cmt>Warning check the accessibility of the waypoint from the Pieterpad before departure</cmt>
   <desc>Warning check the accessibility of the waypoint from the Pieterpad before departure</desc>
   <sym>Ground Transportation</sym>
</wpt>

<wpt lat="53.22728395" lon="6.56065275">
   <ele>0</ele>
   <name>Noorderplantsoen (Bus stop)</name>
   <cmt>Warning check the accessibility of the waypoint from the Pieterpad before departure</cmt>
   <desc>Warning check the accessibility of the waypoint from the Pieterpad before departure</desc>
   <sym>Ground Transportation</sym>
</wpt>

<wpt lat="53.2209584" lon="6.5522754">
   <ele>2</ele>
   <name>Bed &amp; Office 050 (Guest house)</name>
   <cmt>Warning check the accessibility of the waypoint from the Pieterpad before departure</cmt>
   <desc>Warning check the accessibility of the waypoint from the Pieterpad before departure</desc>
   <sym>Lodge</sym>
</wpt>

<wpt lat="53.2181574" lon="6.5560198">
   <ele>3.2</ele>
   <name>Verlengde Visserstraat (Bus stop)</name>
   <cmt>Warning check the accessibility of the waypoint from the Pieterpad before departure</cmt>
   <desc>Warning check the accessibility of the waypoint from the Pieterpad before departure</desc>
   <sym>Ground Transportation</sym>
</wpt>

<wpt lat="53.2112993" lon="6.537587">
   <ele>10.8</ele>
   <name>Rebel Rebel Hostel (Hostel)</name>
   <cmt>+31 6 83695965 Warning check the accessibility of the waypoint from the Pieterpad before departure</cmt>
   <desc>Warning check the accessibility of the waypoint from the Pieterpad before departure</desc>
   <sym>Lodge</sym>
</wpt>

<wpt lat="53.2209901" lon="6.5628998">
   <ele>6.4</ele>
   <name>Auberge &#039;Corps de Garde&#039; (Hotel)</name>
   <cmt>+31 50 314 54 37 Warning check the accessibility of the waypoint from the Pieterpad before departure</cmt>
   <desc>Warning check the accessibility of the waypoint from the Pieterpad before departure</desc>
   <sym>Lodge</sym>
</wpt>

<wpt lat="53.2180006" lon="6.5607649">
   <ele>7.6</ele>
   <name>Picon Suite (Guest house)</name>
   <cmt>Warning check the accessibility of the waypoint from the Pieterpad before departure</cmt>
   <desc>Warning check the accessibility of the waypoint from the Pieterpad before departure</desc>
   <sym>Lodge</sym>
</wpt>

<wpt lat="53.2168317" lon="6.5593932">
   <ele>4.3</ele>
   <name>Hotelschip Mars (Hotel)</name>
   <cmt>Warning check the accessibility of the waypoint from the Pieterpad before departure</cmt>
   <desc>Warning check the accessibility of the waypoint from the Pieterpad before departure</desc>
   <sym>Lodge</sym>
</wpt>

<wpt lat="53.2169579" lon="6.5598089">
   <ele>7.3</ele>
   <name>Hotel Miss Blanche (Hotel)</name>
   <cmt>Warning check the accessibility of the waypoint from the Pieterpad before departure</cmt>
   <desc>Warning check the accessibility of the waypoint from the Pieterpad before departure</desc>
   <sym>Lodge</sym>
</wpt>

<wpt lat="53.21630345" lon="6.561517">
   <ele>10.4</ele>
   <name>A-Kerkhof (Bus stop)</name>
   <cmt>Warning check the accessibility of the waypoint from the Pieterpad before departure</cmt>
   <desc>Warning check the accessibility of the waypoint from the Pieterpad before departure</desc>
   <sym>Ground Transportation</sym>
</wpt>

<wpt lat="53.2208556" lon="6.5688577">
   <ele>5</ele>
   <name>Hotel Prinsenhof (Hotel)</name>
   <cmt>+31 50 3176550 Warning check the accessibility of the waypoint from the Pieterpad before departure</cmt>
   <desc>Warning check the accessibility of the waypoint from the Pieterpad before departure</desc>
   <sym>Lodge</sym>
</wpt>

<wpt lat="53.219383" lon="6.566502">
   <ele>0</ele>
   <name>Groningen (City)</name>
   <cmt>Warning check the accessibility of the waypoint from the Pieterpad before departure</cmt>
   <desc>Warning check the accessibility of the waypoint from the Pieterpad before departure</desc>
   <sym>City Hall</sym>
</wpt>

<wpt lat="53.2145159" lon="6.5646529">
   <ele>4.5</ele>
   <name>Schoolholm (Bus stop)</name>
   <cmt>Warning check the accessibility of the waypoint from the Pieterpad before departure</cmt>
   <desc>Warning check the accessibility of the waypoint from the Pieterpad before departure</desc>
   <sym>Ground Transportation</sym>
</wpt>

<wpt lat="53.2158323" lon="6.5750523">
   <ele>6.8</ele>
   <name>Hampshire (Hotel)</name>
   <cmt>Warning check the accessibility of the waypoint from the Pieterpad before departure</cmt>
   <desc>Warning check the accessibility of the waypoint from the Pieterpad before departure</desc>
   <sym>Lodge</sym>
</wpt>

<wpt lat="53.2157801" lon="6.5713757">
   <ele>7</ele>
   <name>Bud Gett Hostels (Hostel)</name>
   <cmt>+31 50588 6558 Warning check the accessibility of the waypoint from the Pieterpad before departure</cmt>
   <desc>Warning check the accessibility of the waypoint from the Pieterpad before departure</desc>
   <sym>Lodge</sym>
</wpt>

<wpt lat="53.211292" lon="6.565787">
   <ele>0</ele>
   <name>Station Groningen (Station)</name>
   <cmt>Warning check the accessibility of the waypoint from the Pieterpad before departure</cmt>
   <desc>Warning check the accessibility of the waypoint from the Pieterpad before departure</desc>
   <sym>Ground Transportation</sym>
</wpt>

<wpt lat="53.21320405" lon="6.5623373">
   <ele>3.1</ele>
   <name>Emmaplein (Bus stop)</name>
   <cmt>Warning check the accessibility of the waypoint from the Pieterpad before departure</cmt>
   <desc>Warning check the accessibility of the waypoint from the Pieterpad before departure</desc>
   <sym>Ground Transportation</sym>
</wpt>

<wpt lat="53.2139077" lon="6.5619424">
   <ele>3</ele>
   <name>Asgard Hotel (Hotel)</name>
   <cmt>+31 50 3684810 Warning check the accessibility of the waypoint from the Pieterpad before departure</cmt>
   <desc>Warning check the accessibility of the waypoint from the Pieterpad before departure</desc>
   <sym>Lodge</sym>
</wpt>

<wpt lat="53.2071852" lon="6.56014835">
   <ele>4.6</ele>
   <name>Kamerlingh Onnesstraat (Bus stop)</name>
   <cmt>Warning check the accessibility of the waypoint from the Pieterpad before departure</cmt>
   <desc>Warning check the accessibility of the waypoint from the Pieterpad before departure</desc>
   <sym>Ground Transportation</sym>
</wpt>

<wpt lat="53.20692205" lon="6.56231155">
   <ele>5.3</ele>
   <name>Parkbrug (Bus stop)</name>
   <cmt>Warning check the accessibility of the waypoint from the Pieterpad before departure</cmt>
   <desc>Warning check the accessibility of the waypoint from the Pieterpad before departure</desc>
   <sym>Ground Transportation</sym>
</wpt>

<wpt lat="53.2019647" lon="6.5361664">
   <ele>3</ele>
   <name>camping Stadspark (Camp site)</name>
   <cmt>+31 50 525 1624 Warning check the accessibility of the waypoint from the Pieterpad before departure</cmt>
   <desc>Warning check the accessibility of the waypoint from the Pieterpad before departure</desc>
   <sym>Lodge</sym>
</wpt>

<wpt lat="53.2039916" lon="6.55843675">
   <ele>0.3</ele>
   <name>Leonard Springerlaan (Bus stop)</name>
   <cmt>Warning check the accessibility of the waypoint from the Pieterpad before departure</cmt>
   <desc>Warning check the accessibility of the waypoint from the Pieterpad before departure</desc>
   <sym>Ground Transportation</sym>
</wpt>

<wpt lat="53.20152425" lon="6.55967275">
   <ele>0.3</ele>
   <name>Laan van de Vrede (Bus stop)</name>
   <cmt>Warning check the accessibility of the waypoint from the Pieterpad before departure</cmt>
   <desc>Warning check the accessibility of the waypoint from the Pieterpad before departure</desc>
   <sym>Ground Transportation</sym>
</wpt>

<wpt lat="53.2002606" lon="6.5546231">
   <ele>-0.9</ele>
   <name>Apollo hotel (Hotel)</name>
   <cmt>Warning check the accessibility of the waypoint from the Pieterpad before departure</cmt>
   <desc>Warning check the accessibility of the waypoint from the Pieterpad before departure</desc>
   <sym>Lodge</sym>
</wpt>

<wpt lat="53.19838665" lon="6.55816225">
   <ele>0</ele>
   <name>Overwinningsplein (Bus stop)</name>
   <cmt>Warning check the accessibility of the waypoint from the Pieterpad before departure</cmt>
   <desc>Warning check the accessibility of the waypoint from the Pieterpad before departure</desc>
   <sym>Ground Transportation</sym>
</wpt>

<wpt lat="53.19662215" lon="6.5568074">
   <ele>0</ele>
   <name>Hippocrateslaan (Bus stop)</name>
   <cmt>Warning check the accessibility of the waypoint from the Pieterpad before departure</cmt>
   <desc>Warning check the accessibility of the waypoint from the Pieterpad before departure</desc>
   <sym>Ground Transportation</sym>
</wpt>

<wpt lat="53.1934757" lon="6.5581906">
   <ele>0</ele>
   <name>Sportlaan (Bus stop)</name>
   <cmt>Warning check the accessibility of the waypoint from the Pieterpad before departure</cmt>
   <desc>Warning check the accessibility of the waypoint from the Pieterpad before departure</desc>
   <sym>Ground Transportation</sym>
</wpt>

<wpt lat="53.19304545" lon="6.56504835">
   <ele>1.8</ele>
   <name>van Ketwich Verschuurbrug (Bus stop)</name>
   <cmt>Warning check the accessibility of the waypoint from the Pieterpad before departure</cmt>
   <desc>Warning check the accessibility of the waypoint from the Pieterpad before departure</desc>
   <sym>Ground Transportation</sym>
</wpt>

<wpt lat="53.18960195" lon="6.56010385">
   <ele>-1</ele>
   <name>Eisenhowerstraat (Bus stop)</name>
   <cmt>Warning check the accessibility of the waypoint from the Pieterpad before departure</cmt>
   <desc>Warning check the accessibility of the waypoint from the Pieterpad before departure</desc>
   <sym>Ground Transportation</sym>
</wpt>

<wpt lat="53.1696126" lon="6.5528807">
   <ele>1.8</ele>
   <name>B&amp;B Dinos (Guest house)</name>
   <cmt>+31 6 37233190 Warning check the accessibility of the waypoint from the Pieterpad before departure</cmt>
   <desc>Warning check the accessibility of the waypoint from the Pieterpad before departure</desc>
   <sym>Lodge</sym>
</wpt>

<wpt lat="53.1612051" lon="6.5595828">
   <ele>2.7</ele>
   <name>Familiehotel Paterswolde (Hotel)</name>
   <cmt>+31 347 750451 Warning check the accessibility of the waypoint from the Pieterpad before departure</cmt>
   <desc>Warning check the accessibility of the waypoint from the Pieterpad before departure</desc>
   <sym>Lodge</sym>
</wpt>

<wpt lat="53.1670453" lon="6.5781289">
   <ele>-0.2</ele>
   <name>De Vogelhorst (Guest house)</name>
   <cmt>+031 50 3095642 Warning check the accessibility of the waypoint from the Pieterpad before departure</cmt>
   <desc>Warning check the accessibility of the waypoint from the Pieterpad before departure</desc>
   <sym>Lodge</sym>
</wpt>

<wpt lat="53.1696316" lon="6.590897">
   <ele>-0.2</ele>
   <name>P+R Haren/A28 (Bus stop)</name>
   <cmt>Warning check the accessibility of the waypoint from the Pieterpad before departure</cmt>
   <desc>Warning check the accessibility of the waypoint from the Pieterpad before departure</desc>
   <sym>Ground Transportation</sym>
</wpt>

<wpt lat="53.159074" lon="6.5671032">
   <ele>-1.5</ele>
   <name>B&amp;B Lisa (Guest house)</name>
   <cmt>Warning check the accessibility of the waypoint from the Pieterpad before departure</cmt>
   <desc>Warning check the accessibility of the waypoint from the Pieterpad before departure</desc>
   <sym>Lodge</sym>
</wpt>

<wpt lat="53.1676674" lon="6.594512">
   <ele>2.2</ele>
   <name>Nescio Hotel Groningen (Hotel)</name>
   <cmt>Warning check the accessibility of the waypoint from the Pieterpad before departure</cmt>
   <desc>Warning check the accessibility of the waypoint from the Pieterpad before departure</desc>
   <sym>Lodge</sym>
</wpt>

<wpt lat="53.163785" lon="6.61118525">
   <ele>4</ele>
   <name>Rijksstraatweg 279 (Bus stop)</name>
   <cmt>Warning check the accessibility of the waypoint from the Pieterpad before departure</cmt>
   <desc>Warning check the accessibility of the waypoint from the Pieterpad before departure</desc>
   <sym>Ground Transportation</sym>
</wpt>

<wpt lat="53.15971655" lon="6.61408245">
   <ele>5.3</ele>
   <name>Holsteinlaan (Bus stop)</name>
   <cmt>Warning check the accessibility of the waypoint from the Pieterpad before departure</cmt>
   <desc>Warning check the accessibility of the waypoint from the Pieterpad before departure</desc>
   <sym>Ground Transportation</sym>
</wpt>

<wpt lat="53.14894625" lon="6.6244265">
   <ele>3</ele>
   <name>Hoge Hereweg (Bus stop)</name>
   <cmt>Warning check the accessibility of the waypoint from the Pieterpad before departure</cmt>
   <desc>Warning check the accessibility of the waypoint from the Pieterpad before departure</desc>
   <sym>Ground Transportation</sym>
</wpt>

<wpt lat="53.1531233" lon="6.6295186">
   <ele>1</ele>
   <name>Bed &amp; Breakfast Westerveen (Guest house)</name>
   <cmt>Warning check the accessibility of the waypoint from the Pieterpad before departure</cmt>
   <desc>Warning check the accessibility of the waypoint from the Pieterpad before departure</desc>
   <sym>Lodge</sym>
</wpt>

<wpt lat="53.1415646" lon="6.6266646">
   <ele>4</ele>
   <name>Nieuwe Schoolweg (Bus stop)</name>
   <cmt>Warning check the accessibility of the waypoint from the Pieterpad before departure</cmt>
   <desc>Warning check the accessibility of the waypoint from the Pieterpad before departure</desc>
   <sym>Ground Transportation</sym>
</wpt>

<wpt lat="53.14072" lon="6.62846">
   <ele>0</ele>
   <name>Glimmen (Village)</name>
   <cmt>Warning check the accessibility of the waypoint from the Pieterpad before departure</cmt>
   <desc>Warning check the accessibility of the waypoint from the Pieterpad before departure</desc>
   <sym>City Hall</sym>
</wpt>

<wpt lat="53.1445285" lon="6.6256024">
   <ele>4.7</ele>
   <name>Bed &amp; Breakfast Glimmen (Guest house)</name>
   <cmt>Warning check the accessibility of the waypoint from the Pieterpad before departure</cmt>
   <desc>Warning check the accessibility of the waypoint from the Pieterpad before departure</desc>
   <sym>Lodge</sym>
</wpt>

<wpt lat="53.1451614" lon="6.635538">
   <ele>3.4</ele>
   <name>Logies De Leemgaard (Guest house)</name>
   <cmt>Warning check the accessibility of the waypoint from the Pieterpad before departure</cmt>
   <desc>Warning check the accessibility of the waypoint from the Pieterpad before departure</desc>
   <sym>Lodge</sym>
</wpt>

<wpt lat="53.1417597" lon="6.6343327">
   <ele>3.7</ele>
   <name>B&amp;B De Dobbe (Guest house)</name>
   <cmt>+31 6 38050905 Warning check the accessibility of the waypoint from the Pieterpad before departure</cmt>
   <desc>Warning check the accessibility of the waypoint from the Pieterpad before departure</desc>
   <sym>Lodge</sym>
</wpt>

<wpt lat="53.1241689" lon="6.6660261">
   <ele>5</ele>
   <name>Achter de Hoven (Guest house)</name>
   <cmt>+31 50 4093237 Warning check the accessibility of the waypoint from the Pieterpad before departure</cmt>
   <desc>Warning check the accessibility of the waypoint from the Pieterpad before departure</desc>
   <sym>Lodge</sym>
</wpt>

<wpt lat="53.123676" lon="6.6647346">
   <ele>4.8</ele>
   <name>Achter de Hoven (Camp site)</name>
   <cmt>+31 50 4090630 Warning check the accessibility of the waypoint from the Pieterpad before departure</cmt>
   <desc>Warning check the accessibility of the waypoint from the Pieterpad before departure</desc>
   <sym>Lodge</sym>
</wpt>

<wpt lat="53.1241459" lon="6.6660582">
   <ele>5</ele>
   <name>Bed and Breakfast Noordlaren (Guest house)</name>
   <cmt>+31 50 4093237 Warning check the accessibility of the waypoint from the Pieterpad before departure</cmt>
   <desc>Warning check the accessibility of the waypoint from the Pieterpad before departure</desc>
   <sym>Lodge</sym>
</wpt>

<wpt lat="53.0975888" lon="6.6555158">
   <ele>5.7</ele>
   <name>Camping Tienelsheem (Camp site)</name>
   <cmt>+31504091838 Warning check the accessibility of the waypoint from the Pieterpad before departure</cmt>
   <desc>Warning check the accessibility of the waypoint from the Pieterpad before departure</desc>
   <sym>Lodge</sym>
</wpt>

<wpt lat="53.1022486" lon="6.6611527">
   <ele>5</ele>
   <name>Bed &amp; Breakfast Midlaren (Guest house)</name>
   <cmt>Warning check the accessibility of the waypoint from the Pieterpad before departure</cmt>
   <desc>Warning check the accessibility of the waypoint from the Pieterpad before departure</desc>
   <sym>Lodge</sym>
</wpt>

<wpt lat="53.1156612" lon="6.6779219">
   <ele>2.7</ele>
   <name>Landal De Bloemert (Camp site)</name>
   <cmt>+31504091555 Warning check the accessibility of the waypoint from the Pieterpad before departure</cmt>
   <desc>Warning check the accessibility of the waypoint from the Pieterpad before departure</desc>
   <sym>Lodge</sym>
</wpt>

<wpt lat="53.11174765" lon="6.67561665">
   <ele>14.4</ele>
   <name>Tolhuisweg (Bus stop)</name>
   <cmt>Warning check the accessibility of the waypoint from the Pieterpad before departure</cmt>
   <desc>Warning check the accessibility of the waypoint from the Pieterpad before departure</desc>
   <sym>Ground Transportation</sym>
</wpt>

<wpt lat="53.10965" lon="6.677855">
   <ele>0</ele>
   <name>Midlaren (Village)</name>
   <cmt>Warning check the accessibility of the waypoint from the Pieterpad before departure</cmt>
   <desc>Warning check the accessibility of the waypoint from the Pieterpad before departure</desc>
   <sym>City Hall</sym>
</wpt>

<wpt lat="53.1091076" lon="6.6765647">
   <ele>6.4</ele>
   <name>Minicamping De Appelhof (Camp site)</name>
   <cmt>+31 50 4092969 Warning check the accessibility of the waypoint from the Pieterpad before departure</cmt>
   <desc>Warning check the accessibility of the waypoint from the Pieterpad before departure</desc>
   <sym>Lodge</sym>
</wpt>

<wpt lat="53.1007496" lon="6.6893892">
   <ele>1.8</ele>
   <name>B&amp;B In Het Voorhuys (Guest house)</name>
   <cmt>Warning check the accessibility of the waypoint from the Pieterpad before departure</cmt>
   <desc>Warning check the accessibility of the waypoint from the Pieterpad before departure</desc>
   <sym>Lodge</sym>
</wpt>

<wpt lat="53.0967672" lon="6.6880844">
   <ele>6.2</ele>
   <name>Laarwoud (Bus stop)</name>
   <cmt>Warning check the accessibility of the waypoint from the Pieterpad before departure</cmt>
   <desc>Warning check the accessibility of the waypoint from the Pieterpad before departure</desc>
   <sym>Ground Transportation</sym>
</wpt>

<wpt lat="53.0954326" lon="6.6857808">
   <ele>7</ele>
   <name>Vakantiehuis Bed &amp; Breakfast Het Groene Hart (Guest house)</name>
   <cmt>Warning check the accessibility of the waypoint from the Pieterpad before departure</cmt>
   <desc>Warning check the accessibility of the waypoint from the Pieterpad before departure</desc>
   <sym>Lodge</sym>
</wpt>

<wpt lat="53.0952116" lon="6.6876325">
   <ele>7.9</ele>
   <name>B&amp;B Hoeve de Vredenhof (Guest house)</name>
   <cmt>+31 6 46192165 Warning check the accessibility of the waypoint from the Pieterpad before departure</cmt>
   <desc>Warning check the accessibility of the waypoint from the Pieterpad before departure</desc>
   <sym>Lodge</sym>
</wpt>

<wpt lat="53.0938793" lon="6.6879262">
   <ele>9</ele>
   <name>Tulip Inn Brinkhotel (Hotel)</name>
   <cmt>+31 50 4091261 Warning check the accessibility of the waypoint from the Pieterpad before departure</cmt>
   <desc>Warning check the accessibility of the waypoint from the Pieterpad before departure</desc>
   <sym>Lodge</sym>
</wpt>

<wpt lat="53.094128" lon="6.684843">
   <ele>0</ele>
   <name>Zuidlaren (Town)</name>
   <cmt>Warning check the accessibility of the waypoint from the Pieterpad before departure</cmt>
   <desc>Warning check the accessibility of the waypoint from the Pieterpad before departure</desc>
   <sym>City Hall</sym>
</wpt>

<wpt lat="53.0932877" lon="6.6881089">
   <ele>6.6</ele>
   <name>Brink (Bus stop)</name>
   <cmt>Warning check the accessibility of the waypoint from the Pieterpad before departure</cmt>
   <desc>Warning check the accessibility of the waypoint from the Pieterpad before departure</desc>
   <sym>Ground Transportation</sym>
</wpt>

<wpt lat="53.08982885" lon="6.68114935">
   <ele>10.9</ele>
   <name>Wilhelminalaan 1 (Bus stop)</name>
   <cmt>Warning check the accessibility of the waypoint from the Pieterpad before departure</cmt>
   <desc>Warning check the accessibility of the waypoint from the Pieterpad before departure</desc>
   <sym>Ground Transportation</sym>
</wpt>

<wpt lat="53.0934627" lon="6.6742862">
   <ele>8.5</ele>
   <name>B&amp;B Huize Lions (Guest house)</name>
   <cmt>Warning check the accessibility of the waypoint from the Pieterpad before departure</cmt>
   <desc>Warning check the accessibility of the waypoint from the Pieterpad before departure</desc>
   <sym>Lodge</sym>
</wpt>

<wpt lat="53.09127235" lon="6.6770391">
   <ele>12.5</ele>
   <name>Julianalaan (Bus stop)</name>
   <cmt>Warning check the accessibility of the waypoint from the Pieterpad before departure</cmt>
   <desc>Warning check the accessibility of the waypoint from the Pieterpad before departure</desc>
   <sym>Ground Transportation</sym>
</wpt>

<wpt lat="53.0961538" lon="6.6574179">
   <ele>7.2</ele>
   <name>Camping de Timp (Camp site)</name>
   <cmt>+31504091862 Warning check the accessibility of the waypoint from the Pieterpad before departure</cmt>
   <desc>Warning check the accessibility of the waypoint from the Pieterpad before departure</desc>
   <sym>Lodge</sym>
</wpt>

<wpt lat="53.08799" lon="6.6658691">
   <ele>8.1</ele>
   <name>De Keizerskamer (Guest house)</name>
   <cmt>Warning check the accessibility of the waypoint from the Pieterpad before departure</cmt>
   <desc>Warning check the accessibility of the waypoint from the Pieterpad before departure</desc>
   <sym>Lodge</sym>
</wpt>

<wpt lat="53.0780456" lon="6.6688445">
   <ele>13.8</ele>
   <name>Bed &amp; Breakfast Schipborg (Guest house)</name>
   <cmt>Warning check the accessibility of the waypoint from the Pieterpad before departure</cmt>
   <desc>Warning check the accessibility of the waypoint from the Pieterpad before departure</desc>
   <sym>Lodge</sym>
</wpt>

<wpt lat="53.0794622" lon="6.6654852">
   <ele>8.3</ele>
   <name>De Vledders (Camp site)</name>
   <cmt>+31 50 4091489 Warning check the accessibility of the waypoint from the Pieterpad before departure</cmt>
   <desc>Warning check the accessibility of the waypoint from the Pieterpad before departure</desc>
   <sym>Lodge</sym>
</wpt>

<wpt lat="53.0733816" lon="6.6472305">
   <ele>12.7</ele>
   <name>Kampeervereniging Mooi Zeegse (Camp site)</name>
   <cmt>Warning check the accessibility of the waypoint from the Pieterpad before departure</cmt>
   <desc>Warning check the accessibility of the waypoint from the Pieterpad before departure</desc>
   <sym>Lodge</sym>
</wpt>

<wpt lat="53.0693718" lon="6.6498908">
   <ele>9.7</ele>
   <name>Hotel-Restaurant De Zeegser Duinen (Hotel)</name>
   <cmt>+31 347 750466 Warning check the accessibility of the waypoint from the Pieterpad before departure</cmt>
   <desc>Warning check the accessibility of the waypoint from the Pieterpad before departure</desc>
   <sym>Lodge</sym>
</wpt>

<wpt lat="53.072044" lon="6.668501">
   <ele>0</ele>
   <name>Schipborg (Village)</name>
   <cmt>Warning check the accessibility of the waypoint from the Pieterpad before departure</cmt>
   <desc>Warning check the accessibility of the waypoint from the Pieterpad before departure</desc>
   <sym>City Hall</sym>
</wpt>

<wpt lat="53.0640667" lon="6.6511991">
   <ele>12</ele>
   <name>De Clinge (Hostel)</name>
   <cmt>Warning check the accessibility of the waypoint from the Pieterpad before departure</cmt>
   <desc>Warning check the accessibility of the waypoint from the Pieterpad before departure</desc>
   <sym>Lodge</sym>
</wpt>

<wpt lat="53.0526854" lon="6.6381766">
   <ele>5.8</ele>
   <name>Gastenverblijf de Oberlina Hoeve (Guest house)</name>
   <cmt>Warning check the accessibility of the waypoint from the Pieterpad before departure</cmt>
   <desc>Warning check the accessibility of the waypoint from the Pieterpad before departure</desc>
   <sym>Lodge</sym>
</wpt>

<wpt lat="53.03663075" lon="6.66449685">
   <ele>11.2</ele>
   <name>Oudemolenseweg (Bus stop)</name>
   <cmt>Warning check the accessibility of the waypoint from the Pieterpad before departure</cmt>
   <desc>Warning check the accessibility of the waypoint from the Pieterpad before departure</desc>
   <sym>Ground Transportation</sym>
</wpt>

<wpt lat="53.035954" lon="6.663083">
   <ele>0</ele>
   <name>Gasteren (Village)</name>
   <cmt>Warning check the accessibility of the waypoint from the Pieterpad before departure</cmt>
   <desc>Warning check the accessibility of the waypoint from the Pieterpad before departure</desc>
   <sym>City Hall</sym>
</wpt>

<wpt lat="53.0342055" lon="6.6650686">
   <ele>10.1</ele>
   <name>B&amp;B Gasteren (Guest house)</name>
   <cmt>+31 592 272496 Warning check the accessibility of the waypoint from the Pieterpad before departure</cmt>
   <desc>Warning check the accessibility of the waypoint from the Pieterpad before departure</desc>
   <sym>Lodge</sym>
</wpt>

<wpt lat="53.0336878" lon="6.6619307">
   <ele>9.3</ele>
   <name>B&amp;B Stee en Stoede (Guest house)</name>
   <cmt>Warning check the accessibility of the waypoint from the Pieterpad before departure</cmt>
   <desc>Warning check the accessibility of the waypoint from the Pieterpad before departure</desc>
   <sym>Lodge</sym>
</wpt>

<wpt lat="53.033273" lon="6.66157135">
   <ele>8.8</ele>
   <name>Gagels (Bus stop)</name>
   <cmt>Warning check the accessibility of the waypoint from the Pieterpad before departure</cmt>
   <desc>Warning check the accessibility of the waypoint from the Pieterpad before departure</desc>
   <sym>Ground Transportation</sym>
</wpt>

<wpt lat="53.03372" lon="6.6605899">
   <ele>9.3</ele>
   <name>B&amp;B Meander (Guest house)</name>
   <cmt>Warning check the accessibility of the waypoint from the Pieterpad before departure</cmt>
   <desc>Warning check the accessibility of the waypoint from the Pieterpad before departure</desc>
   <sym>Lodge</sym>
</wpt>

<wpt lat="53.0324409" lon="6.6274624">
   <ele>8.1</ele>
   <name>De Paardeblom (Guest house)</name>
   <cmt>+31592231474 Warning check the accessibility of the waypoint from the Pieterpad before departure</cmt>
   <desc>Warning check the accessibility of the waypoint from the Pieterpad before departure</desc>
   <sym>Lodge</sym>
</wpt>

<wpt lat="52.996564" lon="6.6336938">
   <ele>13.8</ele>
   <name>Bed &amp; Breakfast Balloo (Guest house)</name>
   <cmt>+31 592 785022 Warning check the accessibility of the waypoint from the Pieterpad before departure</cmt>
   <desc>Warning check the accessibility of the waypoint from the Pieterpad before departure</desc>
   <sym>Lodge</sym>
</wpt>

<wpt lat="52.9960964" lon="6.6306655">
   <ele>15</ele>
   <name>B&amp;B BijBalloo30 (Guest house)</name>
   <cmt>Warning check the accessibility of the waypoint from the Pieterpad before departure</cmt>
   <desc>Warning check the accessibility of the waypoint from the Pieterpad before departure</desc>
   <sym>Lodge</sym>
</wpt>

<wpt lat="52.9933702" lon="6.6263444">
   <ele>12.7</ele>
   <name>Camping de Balloohoeve (Camp site)</name>
   <cmt>+31 592 243223 Warning check the accessibility of the waypoint from the Pieterpad before departure</cmt>
   <desc>Warning check the accessibility of the waypoint from the Pieterpad before departure</desc>
   <sym>Lodge</sym>
</wpt>

<wpt lat="52.9920581" lon="6.6424136">
   <ele>14.6</ele>
   <name>de Weyert (Camp site)</name>
   <cmt>Warning check the accessibility of the waypoint from the Pieterpad before departure</cmt>
   <desc>Warning check the accessibility of the waypoint from the Pieterpad before departure</desc>
   <sym>Lodge</sym>
</wpt>

<wpt lat="52.98835735" lon="6.6449589">
   <ele>20</ele>
   <name>Kerkbrink (Bus stop)</name>
   <cmt>Warning check the accessibility of the waypoint from the Pieterpad before departure</cmt>
   <desc>Warning check the accessibility of the waypoint from the Pieterpad before departure</desc>
   <sym>Ground Transportation</sym>
</wpt>

<wpt lat="52.9878959" lon="6.646054">
   <ele>17.1</ele>
   <name>Bed &amp; Breakfast Kaasmakerij Karwij (Guest house)</name>
   <cmt>Warning check the accessibility of the waypoint from the Pieterpad before departure</cmt>
   <desc>Warning check the accessibility of the waypoint from the Pieterpad before departure</desc>
   <sym>Lodge</sym>
</wpt>

<wpt lat="52.9880594" lon="6.6458949">
   <ele>17</ele>
   <name>&#039;t Veldhoes (Guest house)</name>
   <cmt>Warning check the accessibility of the waypoint from the Pieterpad before departure</cmt>
   <desc>Warning check the accessibility of the waypoint from the Pieterpad before departure</desc>
   <sym>Lodge</sym>
</wpt>

<wpt lat="52.9874166" lon="6.6463776">
   <ele>16.7</ele>
   <name>Bed and Breakfast Rolde (Guest house)</name>
   <cmt>Warning check the accessibility of the waypoint from the Pieterpad before departure</cmt>
   <desc>Warning check the accessibility of the waypoint from the Pieterpad before departure</desc>
   <sym>Lodge</sym>
</wpt>

<wpt lat="52.987156" lon="6.646998">
   <ele>0</ele>
   <name>Rolde (Village)</name>
   <cmt>Warning check the accessibility of the waypoint from the Pieterpad before departure</cmt>
   <desc>Warning check the accessibility of the waypoint from the Pieterpad before departure</desc>
   <sym>City Hall</sym>
</wpt>

<wpt lat="52.9845415" lon="6.6471186">
   <ele>15.7</ele>
   <name>Bed &amp; Breakfast Bij de Molen (Guest house)</name>
   <cmt>Warning check the accessibility of the waypoint from the Pieterpad before departure</cmt>
   <desc>Warning check the accessibility of the waypoint from the Pieterpad before departure</desc>
   <sym>Lodge</sym>
</wpt>

<wpt lat="52.9843752" lon="6.6577315">
   <ele>12</ele>
   <name>B&amp;B de Hoornkamp (Guest house)</name>
   <cmt>Warning check the accessibility of the waypoint from the Pieterpad before departure</cmt>
   <desc>Warning check the accessibility of the waypoint from the Pieterpad before departure</desc>
   <sym>Lodge</sym>
</wpt>

<wpt lat="52.9907507" lon="6.6781699">
   <ele>10.1</ele>
   <name>Landgoed Tolhek (Camp site)</name>
   <cmt>Warning check the accessibility of the waypoint from the Pieterpad before departure</cmt>
   <desc>Warning check the accessibility of the waypoint from the Pieterpad before departure</desc>
   <sym>Lodge</sym>
</wpt>

<wpt lat="53.0014931" lon="6.6814418">
   <ele>13.7</ele>
   <name>B&amp;B Anderen (Guest house)</name>
   <cmt>Warning check the accessibility of the waypoint from the Pieterpad before departure</cmt>
   <desc>Warning check the accessibility of the waypoint from the Pieterpad before departure</desc>
   <sym>Lodge</sym>
</wpt>

<wpt lat="52.9991903" lon="6.6837551">
   <ele>11.5</ele>
   <name>Boerderijcamping Liebe (Camp site)</name>
   <cmt>+31 592 241503 Warning check the accessibility of the waypoint from the Pieterpad before departure</cmt>
   <desc>Warning check the accessibility of the waypoint from the Pieterpad before departure</desc>
   <sym>Lodge</sym>
</wpt>

<wpt lat="52.9999858" lon="6.6836911">
   <ele>11.3</ele>
   <name>Droomhotel ‘t Heinenhoes (Hotel)</name>
   <cmt>Warning check the accessibility of the waypoint from the Pieterpad before departure</cmt>
   <desc>Warning check the accessibility of the waypoint from the Pieterpad before departure</desc>
   <sym>Lodge</sym>
</wpt>

<wpt lat="53.001205" lon="6.685274">
   <ele>0</ele>
   <name>Anderen (Village)</name>
   <cmt>Warning check the accessibility of the waypoint from the Pieterpad before departure</cmt>
   <desc>Warning check the accessibility of the waypoint from the Pieterpad before departure</desc>
   <sym>City Hall</sym>
</wpt>

<wpt lat="52.9968076" lon="6.6858755">
   <ele>12.6</ele>
   <name>Slaopen &amp; Stoet (Guest house)</name>
   <cmt>+31 6 5151 1111 Warning check the accessibility of the waypoint from the Pieterpad before departure</cmt>
   <desc>Warning check the accessibility of the waypoint from the Pieterpad before departure</desc>
   <sym>Lodge</sym>
</wpt>

<wpt lat="53.0001521" lon="6.6859992">
   <ele>16</ele>
   <name>De Herberg van Anderen (Hotel)</name>
   <cmt>+31 592 242680 Warning check the accessibility of the waypoint from the Pieterpad before departure</cmt>
   <desc>Warning check the accessibility of the waypoint from the Pieterpad before departure</desc>
   <sym>Lodge</sym>
</wpt>

<wpt lat="53.0009685" lon="6.6856652">
   <ele>14.5</ele>
   <name>Droomhotel &#039;t Heinenhoes (Hotel)</name>
   <cmt>+31 592 248777 Warning check the accessibility of the waypoint from the Pieterpad before departure</cmt>
   <desc>Warning check the accessibility of the waypoint from the Pieterpad before departure</desc>
   <sym>Lodge</sym>
</wpt>

<wpt lat="52.9566175" lon="6.6936189">
   <ele>22.9</ele>
   <name>Natuurkampeerterrein Mariahoeve (Camp site)</name>
   <cmt>+31 6 53340010 Warning check the accessibility of the waypoint from the Pieterpad before departure</cmt>
   <desc>Warning check the accessibility of the waypoint from the Pieterpad before departure</desc>
   <sym>Lodge</sym>
</wpt>

<wpt lat="52.9452202" lon="6.740524">
   <ele>23.5</ele>
   <name>Natuurkampeerterrein Borger (Camp site)</name>
   <cmt>Warning check the accessibility of the waypoint from the Pieterpad before departure</cmt>
   <desc>Warning check the accessibility of the waypoint from the Pieterpad before departure</desc>
   <sym>Lodge</sym>
</wpt>

<wpt lat="52.94093815" lon="6.726255">
   <ele>17.7</ele>
   <name>Papenvoort 31 (Bus stop)</name>
   <cmt>Warning check the accessibility of the waypoint from the Pieterpad before departure</cmt>
   <desc>Warning check the accessibility of the waypoint from the Pieterpad before departure</desc>
   <sym>Ground Transportation</sym>
</wpt>

<wpt lat="52.942408" lon="6.7191755">
   <ele>18.7</ele>
   <name>Chaletpark De Keizerskroon (Chalet)</name>
   <cmt>+31 610026447 Warning check the accessibility of the waypoint from the Pieterpad before departure</cmt>
   <desc>Warning check the accessibility of the waypoint from the Pieterpad before departure</desc>
   <sym>Lodge</sym>
</wpt>

<wpt lat="52.9236079" lon="6.7437868">
   <ele>15</ele>
   <name>Boerderijcamping Beekdal (Camp site)</name>
   <cmt>+31 6 54665096 Warning check the accessibility of the waypoint from the Pieterpad before departure</cmt>
   <desc>Warning check the accessibility of the waypoint from the Pieterpad before departure</desc>
   <sym>Lodge</sym>
</wpt>

<wpt lat="52.9245" lon="6.7363191">
   <ele>15.8</ele>
   <name>Lentehof (Guest house)</name>
   <cmt>Warning check the accessibility of the waypoint from the Pieterpad before departure</cmt>
   <desc>Warning check the accessibility of the waypoint from the Pieterpad before departure</desc>
   <sym>Lodge</sym>
</wpt>

<wpt lat="52.9182986" lon="6.7074787">
   <ele>19.8</ele>
   <name>De Warme Bossen (Camp site)</name>
   <cmt>+31 592 501511 Warning check the accessibility of the waypoint from the Pieterpad before departure</cmt>
   <desc>Warning check the accessibility of the waypoint from the Pieterpad before departure</desc>
   <sym>Lodge</sym>
</wpt>

<wpt lat="52.9188131" lon="6.7098969">
   <ele>19.3</ele>
   <name>Bed &amp; Breakfast De Warme Bossen (Guest house)</name>
   <cmt>+31 592 501511 Warning check the accessibility of the waypoint from the Pieterpad before departure</cmt>
   <desc>Warning check the accessibility of the waypoint from the Pieterpad before departure</desc>
   <sym>Lodge</sym>
</wpt>

<wpt lat="52.9111597" lon="6.712628">
   <ele>17.9</ele>
   <name>Recreatiepark De Tien Heugten (Camp site)</name>
   <cmt>+31 592 501220 Warning check the accessibility of the waypoint from the Pieterpad before departure</cmt>
   <desc>Warning check the accessibility of the waypoint from the Pieterpad before departure</desc>
   <sym>Lodge</sym>
</wpt>

<wpt lat="52.9251612" lon="6.6836732">
   <ele>17.9</ele>
   <name>Boerhaars Hoeve (Guest house)</name>
   <cmt>+31 592 501418 Warning check the accessibility of the waypoint from the Pieterpad before departure</cmt>
   <desc>Warning check the accessibility of the waypoint from the Pieterpad before departure</desc>
   <sym>Lodge</sym>
</wpt>

<wpt lat="52.9260022" lon="6.6847324">
   <ele>20.2</ele>
   <name>Boerhaars Hoeve (Chalet)</name>
   <cmt>+31 592 501418 Warning check the accessibility of the waypoint from the Pieterpad before departure</cmt>
   <desc>Warning check the accessibility of the waypoint from the Pieterpad before departure</desc>
   <sym>Lodge</sym>
</wpt>

<wpt lat="52.9101739" lon="6.6953972">
   <ele>24.4</ele>
   <name>De Strubben (Guest house)</name>
   <cmt>Warning check the accessibility of the waypoint from the Pieterpad before departure</cmt>
   <desc>Warning check the accessibility of the waypoint from the Pieterpad before departure</desc>
   <sym>Lodge</sym>
</wpt>

<wpt lat="52.9067356" lon="6.695673">
   <ele>16.4</ele>
   <name>Boerderijcamping Roeloomskamp (Camp site)</name>
   <cmt>+31 592 501208 Warning check the accessibility of the waypoint from the Pieterpad before departure</cmt>
   <desc>Warning check the accessibility of the waypoint from the Pieterpad before departure</desc>
   <sym>Lodge</sym>
</wpt>

<wpt lat="52.9018442" lon="6.6794248">
   <ele>17.9</ele>
   <name>Buitengewoon (Camp site)</name>
   <cmt>+31 592 481 879 Warning check the accessibility of the waypoint from the Pieterpad before departure</cmt>
   <desc>Warning check the accessibility of the waypoint from the Pieterpad before departure</desc>
   <sym>Lodge</sym>
</wpt>

<wpt lat="52.9060822" lon="6.697669">
   <ele>20.5</ele>
   <name>De Deelderij (Camp site)</name>
   <cmt>Warning check the accessibility of the waypoint from the Pieterpad before departure</cmt>
   <desc>Warning check the accessibility of the waypoint from the Pieterpad before departure</desc>
   <sym>Lodge</sym>
</wpt>

<wpt lat="52.901576" lon="6.6889691">
   <ele>18.7</ele>
   <name>Pension De Hofstede (Guest house)</name>
   <cmt>+31 592 501410 Warning check the accessibility of the waypoint from the Pieterpad before departure</cmt>
   <desc>Warning check the accessibility of the waypoint from the Pieterpad before departure</desc>
   <sym>Lodge</sym>
</wpt>

<wpt lat="52.9046106" lon="6.6978614">
   <ele>18.8</ele>
   <name>De Eurostee (Apartment)</name>
   <cmt>Warning check the accessibility of the waypoint from the Pieterpad before departure</cmt>
   <desc>Warning check the accessibility of the waypoint from the Pieterpad before departure</desc>
   <sym>Lodge</sym>
</wpt>

<wpt lat="52.9036461" lon="6.6956623">
   <ele>18</ele>
   <name>B&amp;B vakantieappartement Schoonloo (Guest house)</name>
   <cmt>Warning check the accessibility of the waypoint from the Pieterpad before departure</cmt>
   <desc>Warning check the accessibility of the waypoint from the Pieterpad before departure</desc>
   <sym>Lodge</sym>
</wpt>

<wpt lat="52.905567" lon="6.7004">
   <ele>0</ele>
   <name>Schoonloo (Village)</name>
   <cmt>Warning check the accessibility of the waypoint from the Pieterpad before departure</cmt>
   <desc>Warning check the accessibility of the waypoint from the Pieterpad before departure</desc>
   <sym>City Hall</sym>
</wpt>

<wpt lat="52.90482865" lon="6.698939">
   <ele>20.4</ele>
   <name>Rotonde (Bus stop)</name>
   <cmt>Warning check the accessibility of the waypoint from the Pieterpad before departure</cmt>
   <desc>Warning check the accessibility of the waypoint from the Pieterpad before departure</desc>
   <sym>Ground Transportation</sym>
</wpt>

<wpt lat="52.9040493" lon="6.7004635">
   <ele>20.7</ele>
   <name>De Loohoeve Hotel Restaurant (Hotel)</name>
   <cmt>Warning check the accessibility of the waypoint from the Pieterpad before departure</cmt>
   <desc>Warning check the accessibility of the waypoint from the Pieterpad before departure</desc>
   <sym>Lodge</sym>
</wpt>

<wpt lat="52.90064925" lon="6.7034501">
   <ele>23.4</ele>
   <name>Olle Hullenweg (Bus stop)</name>
   <cmt>Warning check the accessibility of the waypoint from the Pieterpad before departure</cmt>
   <desc>Warning check the accessibility of the waypoint from the Pieterpad before departure</desc>
   <sym>Ground Transportation</sym>
</wpt>

<wpt lat="52.8969093" lon="6.7030046">
   <ele>24.3</ele>
   <name>Natuurkampeerterrein De Dennen (Camp site)</name>
   <cmt>+31 6 23 86 81 68 Warning check the accessibility of the waypoint from the Pieterpad before departure</cmt>
   <desc>Warning check the accessibility of the waypoint from the Pieterpad before departure</desc>
   <sym>Lodge</sym>
</wpt>

<wpt lat="52.89116555" lon="6.7110614">
   <ele>26.8</ele>
   <name>Ellertshaar (Bus stop)</name>
   <cmt>Warning check the accessibility of the waypoint from the Pieterpad before departure</cmt>
   <desc>Warning check the accessibility of the waypoint from the Pieterpad before departure</desc>
   <sym>Ground Transportation</sym>
</wpt>

<wpt lat="52.8782895" lon="6.7205536">
   <ele>17.8</ele>
   <name>B&amp;B de Sloapstee (Guest house)</name>
   <cmt>+31 591 546001 Warning check the accessibility of the waypoint from the Pieterpad before departure</cmt>
   <desc>Warning check the accessibility of the waypoint from the Pieterpad before departure</desc>
   <sym>Lodge</sym>
</wpt>

<wpt lat="52.8434502" lon="6.696741">
   <ele>16</ele>
   <name>Camping Orvelte (Camp site)</name>
   <cmt>+31 593 322230 Warning check the accessibility of the waypoint from the Pieterpad before departure</cmt>
   <desc>Warning check the accessibility of the waypoint from the Pieterpad before departure</desc>
   <sym>Lodge</sym>
</wpt>

<wpt lat="52.8473316" lon="6.6971827">
   <ele>17.4</ele>
   <name>Gastgeverij het Sparnakelnest (B&amp;B) (Guest house)</name>
   <cmt>+31 593 322203 Warning check the accessibility of the waypoint from the Pieterpad before departure</cmt>
   <desc>Warning check the accessibility of the waypoint from the Pieterpad before departure</desc>
   <sym>Lodge</sym>
</wpt>

<wpt lat="52.8610093" lon="6.733476">
   <ele>23.7</ele>
   <name>Natuurkampeerterrein De Kijl (Camp site)</name>
   <cmt>Warning check the accessibility of the waypoint from the Pieterpad before departure</cmt>
   <desc>Warning check the accessibility of the waypoint from the Pieterpad before departure</desc>
   <sym>Lodge</sym>
</wpt>

<wpt lat="52.8578981" lon="6.7474324">
   <ele>23</ele>
   <name>Minicamping Landzicht (Camp site)</name>
   <cmt>Warning check the accessibility of the waypoint from the Pieterpad before departure</cmt>
   <desc>Warning check the accessibility of the waypoint from the Pieterpad before departure</desc>
   <sym>Lodge</sym>
</wpt>

<wpt lat="52.8563573" lon="6.7465355">
   <ele>20.4</ele>
   <name>Chaletpark de Eeke (Chalet)</name>
   <cmt>+31 591 381279 Warning check the accessibility of the waypoint from the Pieterpad before departure</cmt>
   <desc>Warning check the accessibility of the waypoint from the Pieterpad before departure</desc>
   <sym>Lodge</sym>
</wpt>

<wpt lat="52.8465893" lon="6.759175">
   <ele>20</ele>
   <name>Tante Bob &amp; de Rakkertjes B&amp;B en Minicamping (Guest house)</name>
   <cmt>Warning check the accessibility of the waypoint from the Pieterpad before departure</cmt>
   <desc>Warning check the accessibility of the waypoint from the Pieterpad before departure</desc>
   <sym>Lodge</sym>
</wpt>

<wpt lat="52.844971" lon="6.754441">
   <ele>0</ele>
   <name>Schoonoord (Village)</name>
   <cmt>Warning check the accessibility of the waypoint from the Pieterpad before departure</cmt>
   <desc>Warning check the accessibility of the waypoint from the Pieterpad before departure</desc>
   <sym>City Hall</sym>
</wpt>

<wpt lat="52.8444501" lon="6.7593467">
   <ele>21</ele>
   <name>Camping LaWeDa (Camp site)</name>
   <cmt>+31 591 381605 Warning check the accessibility of the waypoint from the Pieterpad before departure</cmt>
   <desc>Warning check the accessibility of the waypoint from the Pieterpad before departure</desc>
   <sym>Lodge</sym>
</wpt>

<wpt lat="52.8372403" lon="6.7630692">
   <ele>23.1</ele>
   <name>Concrea B&amp;B (Guest house)</name>
   <cmt>Warning check the accessibility of the waypoint from the Pieterpad before departure</cmt>
   <desc>Warning check the accessibility of the waypoint from the Pieterpad before departure</desc>
   <sym>Lodge</sym>
</wpt>

<wpt lat="52.8431215" lon="6.7311533">
   <ele>20.5</ele>
   <name>Molecaten Park Kuierpad (Camp site)</name>
   <cmt>+31 591 381415 Warning check the accessibility of the waypoint from the Pieterpad before departure</cmt>
   <desc>Warning check the accessibility of the waypoint from the Pieterpad before departure</desc>
   <sym>Lodge</sym>
</wpt>

<wpt lat="52.8406403" lon="6.7173627">
   <ele>18.8</ele>
   <name>Camping GoedVertoef (Camp site)</name>
   <cmt>+31 591 381489 Warning check the accessibility of the waypoint from the Pieterpad before departure</cmt>
   <desc>Warning check the accessibility of the waypoint from the Pieterpad before departure</desc>
   <sym>Lodge</sym>
</wpt>

<wpt lat="52.8255008" lon="6.7731112">
   <ele>21.2</ele>
   <name>Bed &amp; Breakfast Van hunebed naar jullie bed (Guest house)</name>
   <cmt>Warning check the accessibility of the waypoint from the Pieterpad before departure</cmt>
   <desc>Warning check the accessibility of the waypoint from the Pieterpad before departure</desc>
   <sym>Lodge</sym>
</wpt>

<wpt lat="52.8235984" lon="6.7783581">
   <ele>21</ele>
   <name>Kampeerboerderij De Riegheide (Guest house)</name>
   <cmt>+31 591 381483 Warning check the accessibility of the waypoint from the Pieterpad before departure</cmt>
   <desc>Warning check the accessibility of the waypoint from the Pieterpad before departure</desc>
   <sym>Lodge</sym>
</wpt>

<wpt lat="52.8214535" lon="6.7734132">
   <ele>20.5</ele>
   <name>Rijmaaran (Camp site)</name>
   <cmt>+31591381679 Warning check the accessibility of the waypoint from the Pieterpad before departure</cmt>
   <desc>Warning check the accessibility of the waypoint from the Pieterpad before departure</desc>
   <sym>Lodge</sym>
</wpt>

<wpt lat="52.8232077" lon="6.7788148">
   <ele>19.1</ele>
   <name>SVR Camping De Riegheide (Camp site)</name>
   <cmt>+31 591 381483 Warning check the accessibility of the waypoint from the Pieterpad before departure</cmt>
   <desc>Warning check the accessibility of the waypoint from the Pieterpad before departure</desc>
   <sym>Lodge</sym>
</wpt>

<wpt lat="52.813826" lon="6.7887506">
   <ele>17.3</ele>
   <name>Groepsaccommodatie De Kibbelhof (Guest house)</name>
   <cmt>+31 591 382393 Warning check the accessibility of the waypoint from the Pieterpad before departure</cmt>
   <desc>Warning check the accessibility of the waypoint from the Pieterpad before departure</desc>
   <sym>Lodge</sym>
</wpt>

<wpt lat="52.813115" lon="6.7894828">
   <ele>18.6</ele>
   <name>De Brabander/De Smeltkroes (Camp site)</name>
   <cmt>+31 591 387249 Warning check the accessibility of the waypoint from the Pieterpad before departure</cmt>
   <desc>Warning check the accessibility of the waypoint from the Pieterpad before departure</desc>
   <sym>Lodge</sym>
</wpt>

<wpt lat="52.792666" lon="6.8016127">
   <ele>19.8</ele>
   <name>B&amp;B Galerie23 (Guest house)</name>
   <cmt>+31 591 367007 Warning check the accessibility of the waypoint from the Pieterpad before departure</cmt>
   <desc>Warning check the accessibility of the waypoint from the Pieterpad before departure</desc>
   <sym>Lodge</sym>
</wpt>

<wpt lat="52.7774024" lon="6.8010026">
   <ele>20.9</ele>
   <name>B&amp;B De Schoenlapper (Guest house)</name>
   <cmt>Warning check the accessibility of the waypoint from the Pieterpad before departure</cmt>
   <desc>Warning check the accessibility of the waypoint from the Pieterpad before departure</desc>
   <sym>Lodge</sym>
</wpt>

<wpt lat="52.77805575" lon="6.806217">
   <ele>19.1</ele>
   <name>Boterakkersweg (Bus stop)</name>
   <cmt>Warning check the accessibility of the waypoint from the Pieterpad before departure</cmt>
   <desc>Warning check the accessibility of the waypoint from the Pieterpad before departure</desc>
   <sym>Ground Transportation</sym>
</wpt>

<wpt lat="52.775673" lon="6.802399">
   <ele>0</ele>
   <name>Sleen (Village)</name>
   <cmt>Warning check the accessibility of the waypoint from the Pieterpad before departure</cmt>
   <desc>Warning check the accessibility of the waypoint from the Pieterpad before departure</desc>
   <sym>City Hall</sym>
</wpt>

<wpt lat="52.77400585" lon="6.8074612">
   <ele>20.6</ele>
   <name>Boelkenweg (Bus stop)</name>
   <cmt>Warning check the accessibility of the waypoint from the Pieterpad before departure</cmt>
   <desc>Warning check the accessibility of the waypoint from the Pieterpad before departure</desc>
   <sym>Ground Transportation</sym>
</wpt>

<wpt lat="52.7714828" lon="6.7944933">
   <ele>14</ele>
   <name>Camping Pieterom (Camp site)</name>
   <cmt>+31 591 362290 Warning check the accessibility of the waypoint from the Pieterpad before departure</cmt>
   <desc>Warning check the accessibility of the waypoint from the Pieterpad before departure</desc>
   <sym>Lodge</sym>
</wpt>

<wpt lat="52.7675928" lon="6.8047081">
   <ele>19</ele>
   <name>B&amp;B Onder de Eiken (Guest house)</name>
   <cmt>Warning check the accessibility of the waypoint from the Pieterpad before departure</cmt>
   <desc>Warning check the accessibility of the waypoint from the Pieterpad before departure</desc>
   <sym>Lodge</sym>
</wpt>

<wpt lat="52.7641488" lon="6.8132397">
   <ele>19</ele>
   <name>Diphoorn (Bus stop)</name>
   <cmt>Warning check the accessibility of the waypoint from the Pieterpad before departure</cmt>
   <desc>Warning check the accessibility of the waypoint from the Pieterpad before departure</desc>
   <sym>Ground Transportation</sym>
</wpt>

<wpt lat="52.7507557" lon="6.814551">
   <ele>18</ele>
   <name>1874 (Guest house)</name>
   <cmt>+31 591 546422 Warning check the accessibility of the waypoint from the Pieterpad before departure</cmt>
   <desc>Warning check the accessibility of the waypoint from the Pieterpad before departure</desc>
   <sym>Lodge</sym>
</wpt>

<wpt lat="52.7473026" lon="6.803501">
   <ele>11</ele>
   <name>Ermerzand (Chalet)</name>
   <cmt>Warning check the accessibility of the waypoint from the Pieterpad before departure</cmt>
   <desc>Warning check the accessibility of the waypoint from the Pieterpad before departure</desc>
   <sym>Lodge</sym>
</wpt>

<wpt lat="52.7580025" lon="6.7869888">
   <ele>15</ele>
   <name>Sleense Joffers B&amp;B (Guest house)</name>
   <cmt>Warning check the accessibility of the waypoint from the Pieterpad before departure</cmt>
   <desc>Warning check the accessibility of the waypoint from the Pieterpad before departure</desc>
   <sym>Lodge</sym>
</wpt>

<wpt lat="52.7306381" lon="6.7962597">
   <ele>13.5</ele>
   <name>camping de Uilenberg (Camp site)</name>
   <cmt>Warning check the accessibility of the waypoint from the Pieterpad before departure</cmt>
   <desc>Warning check the accessibility of the waypoint from the Pieterpad before departure</desc>
   <sym>Lodge</sym>
</wpt>

<wpt lat="52.7255835" lon="6.8069347">
   <ele>13.1</ele>
   <name>De Distelweide B&amp;B (Guest house)</name>
   <cmt>Warning check the accessibility of the waypoint from the Pieterpad before departure</cmt>
   <desc>Warning check the accessibility of the waypoint from the Pieterpad before departure</desc>
   <sym>Lodge</sym>
</wpt>

<wpt lat="52.718567" lon="6.848817">
   <ele>0</ele>
   <name>Station Nieuw Amsterdam (Station)</name>
   <cmt>Warning check the accessibility of the waypoint from the Pieterpad before departure</cmt>
   <desc>Warning check the accessibility of the waypoint from the Pieterpad before departure</desc>
   <sym>Ground Transportation</sym>
</wpt>

<wpt lat="52.72085" lon="6.8094808">
   <ele>11.1</ele>
   <name>Minicamping De Biggenhof (Camp site)</name>
   <cmt>+31 591 564090 Warning check the accessibility of the waypoint from the Pieterpad before departure</cmt>
   <desc>Warning check the accessibility of the waypoint from the Pieterpad before departure</desc>
   <sym>Lodge</sym>
</wpt>

<wpt lat="52.7155474" lon="6.8012734">
   <ele>16</ele>
   <name>De Kastanjehoeve  B&amp;B en theetuin (Guest house)</name>
   <cmt>Warning check the accessibility of the waypoint from the Pieterpad before departure</cmt>
   <desc>Warning check the accessibility of the waypoint from the Pieterpad before departure</desc>
   <sym>Lodge</sym>
</wpt>

<wpt lat="52.7168953" lon="6.8034437">
   <ele>10</ele>
   <name>Boheems Paradijs (Camp site)</name>
   <cmt>06-28777473 Warning check the accessibility of the waypoint from the Pieterpad before departure</cmt>
   <desc>Warning check the accessibility of the waypoint from the Pieterpad before departure</desc>
   <sym>Lodge</sym>
</wpt>

<wpt lat="52.7017405" lon="6.8073706">
   <ele>15.7</ele>
   <name>B&amp;B Gezond Boeren Verstand (Guest house)</name>
   <cmt>+31 524 221304 Warning check the accessibility of the waypoint from the Pieterpad before departure</cmt>
   <desc>Warning check the accessibility of the waypoint from the Pieterpad before departure</desc>
   <sym>Lodge</sym>
</wpt>

<wpt lat="52.7020035" lon="6.8057095">
   <ele>10.6</ele>
   <name>Minicamping Gezond Boeren Verstand (Camp site)</name>
   <cmt>+31 524 221304 Warning check the accessibility of the waypoint from the Pieterpad before departure</cmt>
   <desc>Warning check the accessibility of the waypoint from the Pieterpad before departure</desc>
   <sym>Lodge</sym>
</wpt>

<wpt lat="52.695049" lon="6.809919">
   <ele>0</ele>
   <name>Dalerveen (Village)</name>
   <cmt>Warning check the accessibility of the waypoint from the Pieterpad before departure</cmt>
   <desc>Warning check the accessibility of the waypoint from the Pieterpad before departure</desc>
   <sym>City Hall</sym>
</wpt>

<wpt lat="52.7067569" lon="6.755666">
   <ele>14.7</ele>
   <name>Het Stookhok (Guest house)</name>
   <cmt>Warning check the accessibility of the waypoint from the Pieterpad before departure</cmt>
   <desc>Warning check the accessibility of the waypoint from the Pieterpad before departure</desc>
   <sym>Lodge</sym>
</wpt>

<wpt lat="52.6979791" lon="6.7595009">
   <ele>15.6</ele>
   <name>B&amp;B De Kapschuur (Guest house)</name>
   <cmt>Warning check the accessibility of the waypoint from the Pieterpad before departure</cmt>
   <desc>Warning check the accessibility of the waypoint from the Pieterpad before departure</desc>
   <sym>Lodge</sym>
</wpt>

<wpt lat="52.694595" lon="6.758139">
   <ele>0</ele>
   <name>Station Dalen (Station)</name>
   <cmt>Warning check the accessibility of the waypoint from the Pieterpad before departure</cmt>
   <desc>Warning check the accessibility of the waypoint from the Pieterpad before departure</desc>
   <sym>Ground Transportation</sym>
</wpt>

<wpt lat="52.6991571" lon="6.7522694">
   <ele>14</ele>
   <name>Kozakkenhoeve (Guest house)</name>
   <cmt>+31 524 55 23 32 Warning check the accessibility of the waypoint from the Pieterpad before departure</cmt>
   <desc>Warning check the accessibility of the waypoint from the Pieterpad before departure</desc>
   <sym>Lodge</sym>
</wpt>

<wpt lat="52.6717594" lon="6.7816054">
   <ele>12.4</ele>
   <name>Camping Kalmpjes an (Camp site)</name>
   <cmt>Warning check the accessibility of the waypoint from the Pieterpad before departure</cmt>
   <desc>Warning check the accessibility of the waypoint from the Pieterpad before departure</desc>
   <sym>Lodge</sym>
</wpt>

<wpt lat="52.67595" lon="6.7741076">
   <ele>11.5</ele>
   <name>De Huttenheugte (Chalet)</name>
   <cmt>Warning check the accessibility of the waypoint from the Pieterpad before departure</cmt>
   <desc>Warning check the accessibility of the waypoint from the Pieterpad before departure</desc>
   <sym>Lodge</sym>
</wpt>

<wpt lat="52.6799946" lon="6.7691084">
   <ele>13</ele>
   <name>Plopsa Indoor Coevorden (Bus stop)</name>
   <cmt>Warning check the accessibility of the waypoint from the Pieterpad before departure</cmt>
   <desc>Warning check the accessibility of the waypoint from the Pieterpad before departure</desc>
   <sym>Ground Transportation</sym>
</wpt>

<wpt lat="52.6734731" lon="6.7451025">
   <ele>11.5</ele>
   <name>Gouverneur Hofstedelaan (Bus stop)</name>
   <cmt>Warning check the accessibility of the waypoint from the Pieterpad before departure</cmt>
   <desc>Warning check the accessibility of the waypoint from the Pieterpad before departure</desc>
   <sym>Ground Transportation</sym>
</wpt>

<wpt lat="52.6615484" lon="6.74831575">
   <ele>13.6</ele>
   <name>Binnenvree (Bus stop)</name>
   <cmt>Warning check the accessibility of the waypoint from the Pieterpad before departure</cmt>
   <desc>Warning check the accessibility of the waypoint from the Pieterpad before departure</desc>
   <sym>Ground Transportation</sym>
</wpt>

<wpt lat="52.66337865" lon="6.7448766">
   <ele>13.7</ele>
   <name>Kasteel (Bus stop)</name>
   <cmt>Warning check the accessibility of the waypoint from the Pieterpad before departure</cmt>
   <desc>Warning check the accessibility of the waypoint from the Pieterpad before departure</desc>
   <sym>Ground Transportation</sym>
</wpt>

<wpt lat="52.6641976" lon="6.7423685">
   <ele>13</ele>
   <name>Van Heutszsingel 92 (Bus stop)</name>
   <cmt>Warning check the accessibility of the waypoint from the Pieterpad before departure</cmt>
   <desc>Warning check the accessibility of the waypoint from the Pieterpad before departure</desc>
   <sym>Ground Transportation</sym>
</wpt>

<wpt lat="52.661358" lon="6.741062">
   <ele>0</ele>
   <name>Coevorden (Town)</name>
   <cmt>Warning check the accessibility of the waypoint from the Pieterpad before departure</cmt>
   <desc>Warning check the accessibility of the waypoint from the Pieterpad before departure</desc>
   <sym>City Hall</sym>
</wpt>

<wpt lat="52.6625556" lon="6.7414814">
   <ele>15.8</ele>
   <name>H Design Hotels Kasteel Coevorden (Hotel)</name>
   <cmt>Warning check the accessibility of the waypoint from the Pieterpad before departure</cmt>
   <desc>Warning check the accessibility of the waypoint from the Pieterpad before departure</desc>
   <sym>Lodge</sym>
</wpt>

<wpt lat="52.6621284" lon="6.7389615">
   <ele>13.8</ele>
   <name>B&amp;B de Paarse Oase (Guest house)</name>
   <cmt>Warning check the accessibility of the waypoint from the Pieterpad before departure</cmt>
   <desc>Warning check the accessibility of the waypoint from the Pieterpad before departure</desc>
   <sym>Lodge</sym>
</wpt>

<wpt lat="52.6641976" lon="6.7361657">
   <ele>12.9</ele>
   <name>B&amp;B Het Station (Guest house)</name>
   <cmt>Warning check the accessibility of the waypoint from the Pieterpad before departure</cmt>
   <desc>Warning check the accessibility of the waypoint from the Pieterpad before departure</desc>
   <sym>Lodge</sym>
</wpt>

<wpt lat="52.662987" lon="6.736043">
   <ele>0</ele>
   <name>Station Coevorden (Station)</name>
   <cmt>Warning check the accessibility of the waypoint from the Pieterpad before departure</cmt>
   <desc>Warning check the accessibility of the waypoint from the Pieterpad before departure</desc>
   <sym>Ground Transportation</sym>
</wpt>

<wpt lat="52.6602415" lon="6.7290317">
   <ele>9.7</ele>
   <name>Trageldijk (Bus stop)</name>
   <cmt>Warning check the accessibility of the waypoint from the Pieterpad before departure</cmt>
   <desc>Warning check the accessibility of the waypoint from the Pieterpad before departure</desc>
   <sym>Ground Transportation</sym>
</wpt>

<wpt lat="52.6075982" lon="6.68226">
   <ele>9</ele>
   <name>Vakantiepark ’t Hooge Holt (Chalet)</name>
   <cmt>+31 524 442100 Warning check the accessibility of the waypoint from the Pieterpad before departure</cmt>
   <desc>Warning check the accessibility of the waypoint from the Pieterpad before departure</desc>
   <sym>Lodge</sym>
</wpt>

<wpt lat="52.610271" lon="6.67619">
   <ele>0</ele>
   <name>Station Gramsbergen (Station)</name>
   <cmt>Warning check the accessibility of the waypoint from the Pieterpad before departure</cmt>
   <desc>Warning check the accessibility of the waypoint from the Pieterpad before departure</desc>
   <sym>Ground Transportation</sym>
</wpt>

<wpt lat="52.611263" lon="6.674114">
   <ele>0</ele>
   <name>Gramsbergen (Village)</name>
   <cmt>Warning check the accessibility of the waypoint from the Pieterpad before departure</cmt>
   <desc>Warning check the accessibility of the waypoint from the Pieterpad before departure</desc>
   <sym>City Hall</sym>
</wpt>

<wpt lat="52.61001745" lon="6.66925185">
   <ele>10.7</ele>
   <name>Welgelegen (Bus stop)</name>
   <cmt>Warning check the accessibility of the waypoint from the Pieterpad before departure</cmt>
   <desc>Warning check the accessibility of the waypoint from the Pieterpad before departure</desc>
   <sym>Ground Transportation</sym>
</wpt>

<wpt lat="52.6090829" lon="6.6668805">
   <ele>12.8</ele>
   <name>Gastenverblijf Kom-Esch-An (Guest house)</name>
   <cmt>Warning check the accessibility of the waypoint from the Pieterpad before departure</cmt>
   <desc>Warning check the accessibility of the waypoint from the Pieterpad before departure</desc>
   <sym>Lodge</sym>
</wpt>

<wpt lat="52.6083547" lon="6.666762">
   <ele>12.1</ele>
   <name>B&amp;B Corgi’s Nest (Guest house)</name>
   <cmt>Warning check the accessibility of the waypoint from the Pieterpad before departure</cmt>
   <desc>Warning check the accessibility of the waypoint from the Pieterpad before departure</desc>
   <sym>Lodge</sym>
</wpt>

<wpt lat="52.623462" lon="6.6469016">
   <ele>9.6</ele>
   <name>Mini camping De Kleine Weide (Camp site)</name>
   <cmt>Warning check the accessibility of the waypoint from the Pieterpad before departure</cmt>
   <desc>Warning check the accessibility of the waypoint from the Pieterpad before departure</desc>
   <sym>Lodge</sym>
</wpt>

<wpt lat="52.6139211" lon="6.6511882">
   <ele>11.2</ele>
   <name>De Viersprong (Bus stop)</name>
   <cmt>Warning check the accessibility of the waypoint from the Pieterpad before departure</cmt>
   <desc>Warning check the accessibility of the waypoint from the Pieterpad before departure</desc>
   <sym>Ground Transportation</sym>
</wpt>

<wpt lat="52.5893019" lon="6.6565656">
   <ele>12.7</ele>
   <name>Landhoeve de Zwiese (Hotel)</name>
   <cmt>Warning check the accessibility of the waypoint from the Pieterpad before departure</cmt>
   <desc>Warning check the accessibility of the waypoint from the Pieterpad before departure</desc>
   <sym>Lodge</sym>
</wpt>

<wpt lat="52.5998835" lon="6.6238166">
   <ele>9.8</ele>
   <name>Erve &#039;t Hacht (Guest house)</name>
   <cmt>Warning check the accessibility of the waypoint from the Pieterpad before departure</cmt>
   <desc>Warning check the accessibility of the waypoint from the Pieterpad before departure</desc>
   <sym>Lodge</sym>
</wpt>

<wpt lat="52.5781619" lon="6.652246">
   <ele>10</ele>
   <name>De Margriet (Guest house)</name>
   <cmt>Warning check the accessibility of the waypoint from the Pieterpad before departure</cmt>
   <desc>Warning check the accessibility of the waypoint from the Pieterpad before departure</desc>
   <sym>Lodge</sym>
</wpt>

<wpt lat="52.5775863" lon="6.6234654">
   <ele>10</ele>
   <name>B&amp;B Hardenberg Centrum (Guest house)</name>
   <cmt>Warning check the accessibility of the waypoint from the Pieterpad before departure</cmt>
   <desc>Warning check the accessibility of the waypoint from the Pieterpad before departure</desc>
   <sym>Lodge</sym>
</wpt>

<wpt lat="52.5776436" lon="6.6162641">
   <ele>7.8</ele>
   <name>Bed and Breakfast Hardenberg (Guest house)</name>
   <cmt>0652823795 Warning check the accessibility of the waypoint from the Pieterpad before departure</cmt>
   <desc>Warning check the accessibility of the waypoint from the Pieterpad before departure</desc>
   <sym>Lodge</sym>
</wpt>

<wpt lat="52.57372125" lon="6.62084">
   <ele>11</ele>
   <name>Gemeentehuis (Bus stop)</name>
   <cmt>Warning check the accessibility of the waypoint from the Pieterpad before departure</cmt>
   <desc>Warning check the accessibility of the waypoint from the Pieterpad before departure</desc>
   <sym>Ground Transportation</sym>
</wpt>

<wpt lat="52.5753043" lon="6.6228609">
   <ele>11.1</ele>
   <name>Centrum (Bus stop)</name>
   <cmt>Warning check the accessibility of the waypoint from the Pieterpad before departure</cmt>
   <desc>Warning check the accessibility of the waypoint from the Pieterpad before departure</desc>
   <sym>Ground Transportation</sym>
</wpt>

<wpt lat="52.572312" lon="6.6287082">
   <ele>7.8</ele>
   <name>Bed &amp; Breakfast De vlinder (Guest house)</name>
   <cmt>Warning check the accessibility of the waypoint from the Pieterpad before departure</cmt>
   <desc>Warning check the accessibility of the waypoint from the Pieterpad before departure</desc>
   <sym>Lodge</sym>
</wpt>

<wpt lat="52.572319" lon="6.627631">
   <ele>0</ele>
   <name>Station Hardenberg (Station)</name>
   <cmt>Warning check the accessibility of the waypoint from the Pieterpad before departure</cmt>
   <desc>Warning check the accessibility of the waypoint from the Pieterpad before departure</desc>
   <sym>Ground Transportation</sym>
</wpt>

<wpt lat="52.575409" lon="6.616695">
   <ele>0</ele>
   <name>Hardenberg (Town)</name>
   <cmt>Warning check the accessibility of the waypoint from the Pieterpad before departure</cmt>
   <desc>Warning check the accessibility of the waypoint from the Pieterpad before departure</desc>
   <sym>City Hall</sym>
</wpt>

<wpt lat="52.5746749" lon="6.6113809">
   <ele>8</ele>
   <name>De Brink (Bus stop)</name>
   <cmt>Warning check the accessibility of the waypoint from the Pieterpad before departure</cmt>
   <desc>Warning check the accessibility of the waypoint from the Pieterpad before departure</desc>
   <sym>Ground Transportation</sym>
</wpt>

<wpt lat="52.5741186" lon="6.6067364">
   <ele>10</ele>
   <name>Hotel De Bokkepruik (Hotel)</name>
   <cmt>Warning check the accessibility of the waypoint from the Pieterpad before departure</cmt>
   <desc>Warning check the accessibility of the waypoint from the Pieterpad before departure</desc>
   <sym>Lodge</sym>
</wpt>

<wpt lat="52.57236215" lon="6.6111891">
   <ele>10</ele>
   <name>Molenplein (Bus stop)</name>
   <cmt>Warning check the accessibility of the waypoint from the Pieterpad before departure</cmt>
   <desc>Warning check the accessibility of the waypoint from the Pieterpad before departure</desc>
   <sym>Ground Transportation</sym>
</wpt>

<wpt lat="52.5627283" lon="6.6357334">
   <ele>9.8</ele>
   <name>B&amp;B &#039;n Klinkerhof (Guest house)</name>
   <cmt>Warning check the accessibility of the waypoint from the Pieterpad before departure</cmt>
   <desc>Warning check the accessibility of the waypoint from the Pieterpad before departure</desc>
   <sym>Lodge</sym>
</wpt>

<wpt lat="52.5661668" lon="6.6045184">
   <ele>9</ele>
   <name>Meteoorlaan (Bus stop)</name>
   <cmt>Warning check the accessibility of the waypoint from the Pieterpad before departure</cmt>
   <desc>Warning check the accessibility of the waypoint from the Pieterpad before departure</desc>
   <sym>Ground Transportation</sym>
</wpt>

<wpt lat="52.5628272" lon="6.5930325">
   <ele>9.8</ele>
   <name>De Kleine Belties (Camp site)</name>
   <cmt>+31-523-261303 Warning check the accessibility of the waypoint from the Pieterpad before departure</cmt>
   <desc>Warning check the accessibility of the waypoint from the Pieterpad before departure</desc>
   <sym>Lodge</sym>
</wpt>

<wpt lat="52.558333" lon="6.5875">
   <ele>12</ele>
   <name>De Zandstuve (Camp site)</name>
   <cmt>Warning check the accessibility of the waypoint from the Pieterpad before departure</cmt>
   <desc>Warning check the accessibility of the waypoint from the Pieterpad before departure</desc>
   <sym>Lodge</sym>
</wpt>

<wpt lat="52.5299873" lon="6.5911823">
   <ele>5</ele>
   <name>Minicamping Schöttinck (Camp site)</name>
   <cmt>+31 523 232482 Warning check the accessibility of the waypoint from the Pieterpad before departure</cmt>
   <desc>Warning check the accessibility of the waypoint from the Pieterpad before departure</desc>
   <sym>Lodge</sym>
</wpt>

<wpt lat="52.5458153" lon="6.5825745">
   <ele>9.3</ele>
   <name>B&amp;B Rheezer Stee (Guest house)</name>
   <cmt>Warning check the accessibility of the waypoint from the Pieterpad before departure</cmt>
   <desc>Warning check the accessibility of the waypoint from the Pieterpad before departure</desc>
   <sym>Lodge</sym>
</wpt>

<wpt lat="52.54689" lon="6.581385">
   <ele>0</ele>
   <name>Rheeze (Village)</name>
   <cmt>Warning check the accessibility of the waypoint from the Pieterpad before departure</cmt>
   <desc>Warning check the accessibility of the waypoint from the Pieterpad before departure</desc>
   <sym>City Hall</sym>
</wpt>

<wpt lat="52.5464243" lon="6.5803757">
   <ele>10.8</ele>
   <name>Ringweg (Bus stop)</name>
   <cmt>Warning check the accessibility of the waypoint from the Pieterpad before departure</cmt>
   <desc>Warning check the accessibility of the waypoint from the Pieterpad before departure</desc>
   <sym>Ground Transportation</sym>
</wpt>

<wpt lat="52.5488076" lon="6.5750108">
   <ele>9</ele>
   <name>Camping de Oldemeyer (Camp site)</name>
   <cmt>+31-523-262805 Warning check the accessibility of the waypoint from the Pieterpad before departure</cmt>
   <desc>Warning check the accessibility of the waypoint from the Pieterpad before departure</desc>
   <sym>Lodge</sym>
</wpt>

<wpt lat="52.5511676" lon="6.5765879">
   <ele>7.2</ele>
   <name>Familie Camping De Belten (Camp site)</name>
   <cmt>+31-523-262264 Warning check the accessibility of the waypoint from the Pieterpad before departure</cmt>
   <desc>Warning check the accessibility of the waypoint from the Pieterpad before departure</desc>
   <sym>Lodge</sym>
</wpt>

<wpt lat="52.5373069" lon="6.5770172">
   <ele>7.3</ele>
   <name>De Rheezermars (Guest house)</name>
   <cmt>+31 523 251522 Warning check the accessibility of the waypoint from the Pieterpad before departure</cmt>
   <desc>Warning check the accessibility of the waypoint from the Pieterpad before departure</desc>
   <sym>Lodge</sym>
</wpt>

<wpt lat="52.546389" lon="6.570556">
   <ele>8</ele>
   <name>Sprookjescamping De Vechtstreek (Camp site)</name>
   <cmt>+31-523-261369 Warning check the accessibility of the waypoint from the Pieterpad before departure</cmt>
   <desc>Warning check the accessibility of the waypoint from the Pieterpad before departure</desc>
   <sym>Lodge</sym>
</wpt>

<wpt lat="52.5430059" lon="6.5651602">
   <ele>8.8</ele>
   <name>Bed &amp; Breakfast Emely (Guest house)</name>
   <cmt>Warning check the accessibility of the waypoint from the Pieterpad before departure</cmt>
   <desc>Warning check the accessibility of the waypoint from the Pieterpad before departure</desc>
   <sym>Lodge</sym>
</wpt>

<wpt lat="52.5367042" lon="6.5683947">
   <ele>5.1</ele>
   <name>SVR Camping De Kleve (Camp site)</name>
   <cmt>+31 523 237834 Warning check the accessibility of the waypoint from the Pieterpad before departure</cmt>
   <desc>Warning check the accessibility of the waypoint from the Pieterpad before departure</desc>
   <sym>Lodge</sym>
</wpt>

<wpt lat="52.5346297" lon="6.5694599">
   <ele>10.7</ele>
   <name>De Vechtvallei (Camp site)</name>
   <cmt>+31 523 251800 Warning check the accessibility of the waypoint from the Pieterpad before departure</cmt>
   <desc>Warning check the accessibility of the waypoint from the Pieterpad before departure</desc>
   <sym>Lodge</sym>
</wpt>

<wpt lat="52.5342148" lon="6.56329">
   <ele>11.2</ele>
   <name>Natuurkampeerterrein De Klashorst (Camp site)</name>
   <cmt>+31 6 13231326 Warning check the accessibility of the waypoint from the Pieterpad before departure</cmt>
   <desc>Warning check the accessibility of the waypoint from the Pieterpad before departure</desc>
   <sym>Lodge</sym>
</wpt>

<wpt lat="52.5241811" lon="6.5603523">
   <ele>9.7</ele>
   <name>Hotel de Gloepe (Hotel)</name>
   <cmt>Warning check the accessibility of the waypoint from the Pieterpad before departure</cmt>
   <desc>Warning check the accessibility of the waypoint from the Pieterpad before departure</desc>
   <sym>Lodge</sym>
</wpt>

<wpt lat="52.5216124" lon="6.5601519">
   <ele>8.1</ele>
   <name>Boerencamping Het Scholtemeijer (Camp site)</name>
   <cmt>+31 6 33192880 Warning check the accessibility of the waypoint from the Pieterpad before departure</cmt>
   <desc>Warning check the accessibility of the waypoint from the Pieterpad before departure</desc>
   <sym>Lodge</sym>
</wpt>

<wpt lat="52.5233964" lon="6.5443526">
   <ele>10.7</ele>
   <name>Netherlandsse Caravanclub (Camp site)</name>
   <cmt>Warning check the accessibility of the waypoint from the Pieterpad before departure</cmt>
   <desc>Warning check the accessibility of the waypoint from the Pieterpad before departure</desc>
   <sym>Lodge</sym>
</wpt>

<wpt lat="52.5449883" lon="6.4946229">
   <ele>9</ele>
   <name>De Kleine Wolf (Camp site)</name>
   <cmt>Warning check the accessibility of the waypoint from the Pieterpad before departure</cmt>
   <desc>Warning check the accessibility of the waypoint from the Pieterpad before departure</desc>
   <sym>Lodge</sym>
</wpt>

<wpt lat="52.5240703" lon="6.5086524">
   <ele>5.5</ele>
   <name>Erve Praestinck (Guest house)</name>
   <cmt>Warning check the accessibility of the waypoint from the Pieterpad before departure</cmt>
   <desc>Warning check the accessibility of the waypoint from the Pieterpad before departure</desc>
   <sym>Lodge</sym>
</wpt>

<wpt lat="52.5117342" lon="6.5185923">
   <ele>12.1</ele>
   <name>Bed &amp; Breakfast Grimme (Guest house)</name>
   <cmt>Warning check the accessibility of the waypoint from the Pieterpad before departure</cmt>
   <desc>Warning check the accessibility of the waypoint from the Pieterpad before departure</desc>
   <sym>Lodge</sym>
</wpt>

<wpt lat="52.5108032" lon="6.5155611">
   <ele>10</ele>
   <name>De Roos (Camp site)</name>
   <cmt>Warning check the accessibility of the waypoint from the Pieterpad before departure</cmt>
   <desc>Warning check the accessibility of the waypoint from the Pieterpad before departure</desc>
   <sym>Lodge</sym>
</wpt>

<wpt lat="52.5275891" lon="6.4575753">
   <ele>7.1</ele>
   <name>In De Oude Geitenstal (Guest house)</name>
   <cmt>Warning check the accessibility of the waypoint from the Pieterpad before departure</cmt>
   <desc>Warning check the accessibility of the waypoint from the Pieterpad before departure</desc>
   <sym>Lodge</sym>
</wpt>

<wpt lat="52.5159115" lon="6.4275765">
   <ele>9.4</ele>
   <name>Groepsaccommodatie Zeesse (Guest house)</name>
   <cmt>Warning check the accessibility of the waypoint from the Pieterpad before departure</cmt>
   <desc>Warning check the accessibility of the waypoint from the Pieterpad before departure</desc>
   <sym>Lodge</sym>
</wpt>

<wpt lat="52.5194878" lon="6.4255663">
   <ele>8.2</ele>
   <name>Centrum (Bus stop)</name>
   <cmt>Warning check the accessibility of the waypoint from the Pieterpad before departure</cmt>
   <desc>Warning check the accessibility of the waypoint from the Pieterpad before departure</desc>
   <sym>Ground Transportation</sym>
</wpt>

<wpt lat="52.524857" lon="6.425995">
   <ele>0</ele>
   <name>Ommen (Town)</name>
   <cmt>Warning check the accessibility of the waypoint from the Pieterpad before departure</cmt>
   <desc>Warning check the accessibility of the waypoint from the Pieterpad before departure</desc>
   <sym>City Hall</sym>
</wpt>

<wpt lat="52.5359693" lon="6.4329985">
   <ele>5.1</ele>
   <name>B&amp;B De IJsvogel (Guest house)</name>
   <cmt>Warning check the accessibility of the waypoint from the Pieterpad before departure</cmt>
   <desc>Warning check the accessibility of the waypoint from the Pieterpad before departure</desc>
   <sym>Lodge</sym>
</wpt>

<wpt lat="52.5173644" lon="6.4074254">
   <ele>4.9</ele>
   <name>Camping Anna&#039; s Hoeve (Camp site)</name>
   <cmt>Warning check the accessibility of the waypoint from the Pieterpad before departure</cmt>
   <desc>Warning check the accessibility of the waypoint from the Pieterpad before departure</desc>
   <sym>Lodge</sym>
</wpt>

<wpt lat="52.5169829" lon="6.4126373">
   <ele>9.2</ele>
   <name>Camping de Koeksebelt (Camp site)</name>
   <cmt>+31 529 451378 Warning check the accessibility of the waypoint from the Pieterpad before departure</cmt>
   <desc>Warning check the accessibility of the waypoint from the Pieterpad before departure</desc>
   <sym>Lodge</sym>
</wpt>

<wpt lat="52.5107082" lon="6.4192038">
   <ele>6.8</ele>
   <name>Hotel Paping (Hotel)</name>
   <cmt>Warning check the accessibility of the waypoint from the Pieterpad before departure</cmt>
   <desc>Warning check the accessibility of the waypoint from the Pieterpad before departure</desc>
   <sym>Lodge</sym>
</wpt>

<wpt lat="52.50988" lon="6.417335">
   <ele>0</ele>
   <name>Station Ommen (Station)</name>
   <cmt>Warning check the accessibility of the waypoint from the Pieterpad before departure</cmt>
   <desc>Warning check the accessibility of the waypoint from the Pieterpad before departure</desc>
   <sym>Ground Transportation</sym>
</wpt>

<wpt lat="52.5063833" lon="6.4079818">
   <ele>11.4</ele>
   <name>Bed and Breakfast De Vierjaargetijden (Guest house)</name>
   <cmt>Warning check the accessibility of the waypoint from the Pieterpad before departure</cmt>
   <desc>Warning check the accessibility of the waypoint from the Pieterpad before departure</desc>
   <sym>Lodge</sym>
</wpt>

<wpt lat="52.5048811" lon="6.4106575">
   <ele>11.6</ele>
   <name>De Wolfskuil (Camp site)</name>
   <cmt>+31529451631 Warning check the accessibility of the waypoint from the Pieterpad before departure</cmt>
   <desc>Warning check the accessibility of the waypoint from the Pieterpad before departure</desc>
   <sym>Lodge</sym>
</wpt>

<wpt lat="52.50461435" lon="6.42135335">
   <ele>14.7</ele>
   <name>Giethmerkerkpad (Bus stop)</name>
   <cmt>Warning check the accessibility of the waypoint from the Pieterpad before departure</cmt>
   <desc>Warning check the accessibility of the waypoint from the Pieterpad before departure</desc>
   <sym>Ground Transportation</sym>
</wpt>

<wpt lat="52.5033938" lon="6.442562">
   <ele>18.3</ele>
   <name>Recreatiecentrum Besthmenerberg (Camp site)</name>
   <cmt>+31 529 451362 Warning check the accessibility of the waypoint from the Pieterpad before departure</cmt>
   <desc>Warning check the accessibility of the waypoint from the Pieterpad before departure</desc>
   <sym>Lodge</sym>
</wpt>

<wpt lat="52.495087" lon="6.4035712">
   <ele>6.4</ele>
   <name>Bed and Breakfast De Luttikhoeve (Guest house)</name>
   <cmt>0529-455435 / 06-51188665 Warning check the accessibility of the waypoint from the Pieterpad before departure</cmt>
   <desc>Warning check the accessibility of the waypoint from the Pieterpad before departure</desc>
   <sym>Lodge</sym>
</wpt>

<wpt lat="52.486962" lon="6.4182839">
   <ele>7</ele>
   <name>&#039;t Voshuus (Camp site)</name>
   <cmt>Warning check the accessibility of the waypoint from the Pieterpad before departure</cmt>
   <desc>Warning check the accessibility of the waypoint from the Pieterpad before departure</desc>
   <sym>Lodge</sym>
</wpt>

<wpt lat="52.4886611" lon="6.4119878">
   <ele>5.8</ele>
   <name>camping Bergzicht (Camp site)</name>
   <cmt>+31 529 451208 Warning check the accessibility of the waypoint from the Pieterpad before departure</cmt>
   <desc>Warning check the accessibility of the waypoint from the Pieterpad before departure</desc>
   <sym>Lodge</sym>
</wpt>

<wpt lat="52.4813121" lon="6.4307282">
   <ele>5.7</ele>
   <name>de Jonge Butink (Camp site)</name>
   <cmt>Warning check the accessibility of the waypoint from the Pieterpad before departure</cmt>
   <desc>Warning check the accessibility of the waypoint from the Pieterpad before departure</desc>
   <sym>Lodge</sym>
</wpt>

<wpt lat="52.4659799" lon="6.424504">
   <ele>13.8</ele>
   <name>De Lemeler Esch (Camp site)</name>
   <cmt>Warning check the accessibility of the waypoint from the Pieterpad before departure</cmt>
   <desc>Warning check the accessibility of the waypoint from the Pieterpad before departure</desc>
   <sym>Lodge</sym>
</wpt>

<wpt lat="52.4615512" lon="6.4058638">
   <ele>34.5</ele>
   <name>Barg Willem (Guest house)</name>
   <cmt>Warning check the accessibility of the waypoint from the Pieterpad before departure</cmt>
   <desc>Warning check the accessibility of the waypoint from the Pieterpad before departure</desc>
   <sym>Lodge</sym>
</wpt>

<wpt lat="52.459925" lon="6.4209691">
   <ele>7</ele>
   <name>Camping De Eskamp (Camp site)</name>
   <cmt>Warning check the accessibility of the waypoint from the Pieterpad before departure</cmt>
   <desc>Warning check the accessibility of the waypoint from the Pieterpad before departure</desc>
   <sym>Lodge</sym>
</wpt>

<wpt lat="52.454136" lon="6.416337">
   <ele>0</ele>
   <name>Lemele (Village)</name>
   <cmt>Warning check the accessibility of the waypoint from the Pieterpad before departure</cmt>
   <desc>Warning check the accessibility of the waypoint from the Pieterpad before departure</desc>
   <sym>City Hall</sym>
</wpt>

<wpt lat="52.4585985" lon="6.4232786">
   <ele>7.8</ele>
   <name>Camping Groepsaccommodatie Erve Aaftink (Camp site)</name>
   <cmt>Warning check the accessibility of the waypoint from the Pieterpad before departure</cmt>
   <desc>Warning check the accessibility of the waypoint from the Pieterpad before departure</desc>
   <sym>Lodge</sym>
</wpt>

<wpt lat="52.4427621" lon="6.4090049">
   <ele>8.9</ele>
   <name>B&amp;B en vakantie appartement de Glinthaar (Guest house)</name>
   <cmt>Warning check the accessibility of the waypoint from the Pieterpad before departure</cmt>
   <desc>Warning check the accessibility of the waypoint from the Pieterpad before departure</desc>
   <sym>Lodge</sym>
</wpt>

<wpt lat="52.4377916" lon="6.4117184">
   <ele>7</ele>
   <name>B&amp;B Pieterpad Lemele (Guest house)</name>
   <cmt>0651009553 Warning check the accessibility of the waypoint from the Pieterpad before departure</cmt>
   <desc>Warning check the accessibility of the waypoint from the Pieterpad before departure</desc>
   <sym>Lodge</sym>
</wpt>

<wpt lat="52.4277848" lon="6.4085648">
   <ele>7</ele>
   <name>B&amp;B Boerderij Weidezicht (Guest house)</name>
   <cmt>Warning check the accessibility of the waypoint from the Pieterpad before departure</cmt>
   <desc>Warning check the accessibility of the waypoint from the Pieterpad before departure</desc>
   <sym>Lodge</sym>
</wpt>