<?xml version="1.0" encoding="UTF-8"?>
<kml xmlns="http://www.opengis.net/kml/2.2">
  <Document>
    <name>NS Northwest</name>
    <description/>
    <Style id="icon-1899-0288D1-nodesc-normal">
      <IconStyle>
        <color>ffd18802</color>
        <scale>1</scale>
        <Icon>
          <href>http://www.gstatic.com/mapspro/images/stock/503-wht-blank_maps.png</href>
        </Icon>
        <hotSpot x="32" xunits="pixels" y="64" yunits="insetPixels"/>
      </IconStyle>
      <LabelStyle>
        <scale>0</scale>
      </LabelStyle>
      <BalloonStyle>
        <text><![CDATA[<h3>$[name]</h3>]]></text>
      </BalloonStyle>
    </Style>
    <Style id="icon-1899-0288D1-nodesc-highlight">
      <IconStyle>
        <color>ffd18802</color>
        <scale>1</scale>
        <Icon>
          <href>http://www.gstatic.com/mapspro/images/stock/503-wht-blank_maps.png</href>
        </Icon>
        <hotSpot x="32" xunits="pixels" y="64" yunits="insetPixels"/>
      </IconStyle>
      <LabelStyle>
        <scale>1</scale>
      </LabelStyle>
      <BalloonStyle>
        <text><![CDATA[<h3>$[name]</h3>]]></text>
      </BalloonStyle>
    </Style>
    <StyleMap id="icon-1899-0288D1-nodesc">
      <Pair>
        <key>normal</key>
        <styleUrl>#icon-1899-0288D1-nodesc-normal</styleUrl>
      </Pair>
      <Pair>
        <key>highlight</key>
        <styleUrl>#icon-1899-0288D1-nodesc-highlight</styleUrl>
      </Pair>
    </StyleMap>
    <Folder>
      <name>noordoost nederland</name>
      <Placemark>
        <name>Alkmaar, Station</name>
        <styleUrl>#icon-1899-0288D1-nodesc</styleUrl>
        <Point>
          <coordinates>
            4.74287500000003,52.637934,0
          </coordinates>
        </Point>
      </Placemark>
      <Placemark>
        <name>Enkhuizen, Station</name>
        <styleUrl>#icon-1899-0288D1-nodesc</styleUrl>
        <Point>
          <coordinates>
            5.28853500000002,52.700051,0
          </coordinates>
        </Point>
      </Placemark>
      <Placemark>
        <name>Hoorn, Station</name>
        <styleUrl>#icon-1899-0288D1-nodesc</styleUrl>
        <Point>
          <coordinates>
            5.053898,52.644551,0
          </coordinates>
        </Point>
      </Placemark>
      <Placemark>
        <name>Hoorn, Kersenboogerd Station</name>
        <styleUrl>#icon-1899-0288D1-nodesc</styleUrl>
        <Point>
          <coordinates>
            5.08548999999994,52.653193,0
          </coordinates>
        </Point>
      </Placemark>
      <Placemark>
        <name>Amsterdam Zuid</name>
        <styleUrl>#icon-1899-0288D1-nodesc</styleUrl>
        <Point>
          <coordinates>
            4.87345129999994,52.3390393,0
          </coordinates>
        </Point>
      </Placemark>
      <Placemark>
        <name>Nieuw-Vennep Railway Station</name>
        <styleUrl>#icon-1899-0288D1-nodesc</styleUrl>
        <Point>
          <coordinates>
            4.64558469999997,52.2590207,0
          </coordinates>
        </Point>
      </Placemark>
      <Placemark>
        <name>Den Helder Zuid</name>
        <styleUrl>#icon-1899-0288D1-nodesc</styleUrl>
        <Point>
          <coordinates>
            4.76434399999994,52.932921,0
          </coordinates>
        </Point>
      </Placemark>
      <Placemark>
        <name>Den Helder, Station</name>
        <styleUrl>#icon-1899-0288D1-nodesc</styleUrl>
        <Point>
          <coordinates>
            4.76142809999999,52.9566663,0
          </coordinates>
        </Point>
      </Placemark>
      <Placemark>
        <name>Anna Paulowna, Station</name>
        <styleUrl>#icon-1899-0288D1-nodesc</styleUrl>
        <Point>
          <coordinates>
            4.81163800000002,52.867673,0
          </coordinates>
        </Point>
      </Placemark>
      <Placemark>
        <name>Schagen, Station</name>
        <styleUrl>#icon-1899-0288D1-nodesc</styleUrl>
        <Point>
          <coordinates>
            4.80491099999995,52.785123,0
          </coordinates>
        </Point>
      </Placemark>
      <Placemark>
        <name>Heiloo, Station</name>
        <styleUrl>#icon-1899-0288D1-nodesc</styleUrl>
        <Point>
          <coordinates>
            4.70220189999998,52.6008543,0
          </coordinates>
        </Point>
      </Placemark>
      <Placemark>
        <name>Uitgeest, Station</name>
        <styleUrl>#icon-1899-0288D1-nodesc</styleUrl>
        <Point>
          <coordinates>
            4.70248800000002,52.521932,0
          </coordinates>
        </Point>
      </Placemark>
      <Placemark>
        <name>Heemskerk railway station</name>
        <styleUrl>#icon-1899-0288D1-nodesc</styleUrl>
        <Point>
          <coordinates>
            4.68588799999998,52.494648,0
          </coordinates>
        </Point>
      </Placemark>
      <Placemark>
        <name>Driehuis</name>
        <styleUrl>#icon-1899-0288D1-nodesc</styleUrl>
        <Point>
          <coordinates>
            4.63941079999995,52.4431066,0
          </coordinates>
        </Point>
      </Placemark>
      <Placemark>
        <name>Santpoort-Zuid, Station Zuid</name>
        <styleUrl>#icon-1899-0288D1-nodesc</styleUrl>
        <Point>
          <coordinates>
            4.63091299999996,52.419399,0
          </coordinates>
        </Point>
      </Placemark>
      <Placemark>
        <name>Bloemendaal, Station</name>
        <styleUrl>#icon-1899-0288D1-nodesc</styleUrl>
        <Point>
          <coordinates>
            4.627026,52.404347,0
          </coordinates>
        </Point>
      </Placemark>
      <Placemark>
        <name>Overveen, Station</name>
        <styleUrl>#icon-1899-0288D1-nodesc</styleUrl>
        <Point>
          <coordinates>
            4.60821499999997,52.391048,0
          </coordinates>
        </Point>
      </Placemark>
      <Placemark>
        <name>Haarlem Station</name>
        <styleUrl>#icon-1899-0288D1-nodesc</styleUrl>
        <Point>
          <coordinates>
            4.63814990000003,52.3884805,0
          </coordinates>
        </Point>
      </Placemark>
      <Placemark>
        <name>Zandvoort, Station</name>
        <styleUrl>#icon-1899-0288D1-nodesc</styleUrl>
        <Point>
          <coordinates>
            4.53048000000001,52.376113,0
          </coordinates>
        </Point>
      </Placemark>
      <Placemark>
        <name>Heemstede-Aerdenhout</name>
        <styleUrl>#icon-1899-0288D1-nodesc</styleUrl>
        <Point>
          <coordinates>
            4.60690099999999,52.3594697,0
          </coordinates>
        </Point>
      </Placemark>
      <Placemark>
        <name>Schiphol</name>
        <styleUrl>#icon-1899-0288D1-nodesc</styleUrl>
        <Point>
          <coordinates>
            4.76235969999993,52.3094731,0
          </coordinates>
        </Point>
      </Placemark>
      <Placemark>
        <name>Hoofddorp, Station</name>
        <styleUrl>#icon-1899-0288D1-nodesc</styleUrl>
        <Point>
          <coordinates>
            4.69787299999996,52.292773,0
          </coordinates>
        </Point>
      </Placemark>
      <Placemark>
        <name>Nieuw-Vennep, Station</name>
        <styleUrl>#icon-1899-0288D1-nodesc</styleUrl>
        <Point>
          <coordinates>
            4.644679,52.259193,0
          </coordinates>
        </Point>
      </Placemark>
      <Placemark>
        <name>Leiden Centraal</name>
        <styleUrl>#icon-1899-0288D1-nodesc</styleUrl>
        <Point>
          <coordinates>
            4.48208879999993,52.1664042,0
          </coordinates>
        </Point>
      </Placemark>
      <Placemark>
        <name>Zaandam, Station</name>
        <styleUrl>#icon-1899-0288D1-nodesc</styleUrl>
        <Point>
          <coordinates>
            4.81437370000003,52.438852,0
          </coordinates>
        </Point>
      </Placemark>
      <Placemark>
        <name>Koog aan de Zaan</name>
        <styleUrl>#icon-1899-0288D1-nodesc</styleUrl>
        <Point>
          <coordinates>
            4.80583290000004,52.4577218,0
          </coordinates>
        </Point>
      </Placemark>
      <Placemark>
        <name>Zaandijk Zaanse Schans</name>
        <styleUrl>#icon-1899-0288D1-nodesc</styleUrl>
        <Point>
          <coordinates>
            4.8051676,52.4693103,0
          </coordinates>
        </Point>
      </Placemark>
      <Placemark>
        <name>Wormerveer</name>
        <styleUrl>#icon-1899-0288D1-nodesc</styleUrl>
        <Point>
          <coordinates>
            4.79290170000002,52.4892166,0
          </coordinates>
        </Point>
      </Placemark>
      <Placemark>
        <name>Obdam</name>
        <styleUrl>#icon-1899-0288D1-nodesc</styleUrl>
        <Point>
          <coordinates>
            4.90926330000002,52.6780376,0
          </coordinates>
        </Point>
      </Placemark>
    </Folder>
    <Folder>
      <name>noordwest nederland</name>
    </Folder>
  </Document>
</kml>
